,CityCountry,Latitude,Longitude,city,country,20140209,Language20140209,20140210,Language20140210,20140211,Language20140211,20140212,Language20140212,20140213,Language20140213,20140214,Language20140214,20140215,Language20140215,20140216,Language20140216,20140217,Language20140217,20140218,Language20140218,20140219,Language20140219,20140220,Language20140220,20140221,Language20140221,20140222,Language20140222,20140223,Language20140223,20140224,Language20140224,20140225,Language20140225,20140226,Language20140226,20140227,Language20140227,20140228,Language20140228,20140301,Language20140301,20140302,Language20140302
0,'s-Gravenzande-Netherlands0,52.0013,4.167,'sGravenzande,Netherlands,0,,0.0,en,0.0,,0.0,,1.0,en,1.0,,1.0,,1.0,,1.0,,1.0,,1.0,,1.0,,1.0,,1.0,,1.0,,1.0,,1.0,,1.0,,1.0,,1.0,,1.0,,1.0,
1,'s-Hertogenbosch-Netherlands0,51.6978,5.3037,'sHertogenbosch,Netherlands,0,,0.0,en,2.0,en,3.0,en,4.0,en,4.0,,4.0,,4.0,,4.0,,4.0,,4.0,,4.0,,4.0,,4.0,,4.0,,4.0,,4.0,,4.0,,4.0,,4.0,,4.0,,4.0,
2,A Coruna-Spain0,43.3623,-8.4115,A Coruna,Spain,0,,2.0,en,5.0,en,5.0,,5.0,,5.0,,5.0,,5.0,,5.0,,5.0,,5.0,,5.0,,5.0,,5.0,,5.0,,5.0,,5.0,,6.0,en,6.0,,6.0,,6.0,,6.0,
3,A Coruna-Spain1,43.3623,-8.4115,A Coruna,Spain,0,,0.0,en,0.0,,0.0,,0.0,,0.0,,0.0,,0.0,,0.0,,0.0,,0.0,,0.0,,11.0,es,22.0,es,26.0,es,26.0,,26.0,,26.0,,26.0,,26.0,,26.0,,26.0,
4,A Coruna-Spain2,43.3623,-8.4115,A Coruna,Spain,0,,0.0,en,0.0,,0.0,,0.0,,0.0,,0.0,,0.0,,0.0,,0.0,,0.0,,0.0,,0.0,,0.0,,0.0,,0.0,,0.0,,0.0,,0.0,,0.0,,0.0,,0.0,
5,A Coruna-Spain3,43.3623,-8.4115,A Coruna,Spain,0,,0.0,en,0.0,,0.0,,0.0,,0.0,,0.0,,0.0,,0.0,,0.0,,1.0,pt,1.0,,1.0,,1.0,,1.0,,1.0,,1.0,,1.0,,1.0,,1.0,,1.0,,1.0,
6,Aabybro-Denmark0,57.1602,9.7347,Aabybro,Denmark,0,,0.0,en,1.0,en,1.0,,1.0,,1.0,,1.0,,1.0,,1.0,,1.0,,1.0,,1.0,,1.0,,1.0,,1.0,,1.0,,1.0,,1.0,,1.0,,1.0,,1.0,,1.0,
7,Aachen-Germany0,50.7753,6.0839,Aachen,Germany,0,,5.0,en,10.0,en,11.0,en,11.0,,12.0,en,12.0,,12.0,,13.0,en,13.0,,13.0,,13.0,,13.0,,13.0,,14.0,en,14.0,,14.0,,14.0,,14.0,,14.0,,14.0,,14.0,
8,Aachen-Germany3,50.7753,6.0839,Aachen,Germany,0,,0.0,en,0.0,,0.0,,0.0,,0.0,,0.0,,0.0,,0.0,,0.0,,0.0,,1.0,pt,2.0,pt,2.0,,2.0,,2.0,,2.0,,2.0,,2.0,,2.0,,2.0,,2.0,
9,Aalborg-Denmark0,57.0488,9.9217,Aalborg,Denmark,0,,7.0,en,10.0,en,11.0,en,12.0,en,12.0,,12.0,,13.0,en,13.0,,13.0,,13.0,,13.0,,13.0,,13.0,,13.0,,13.0,,13.0,,13.0,,13.0,,13.0,,13.0,,13.0,
10,Aalst-Belgium0,50.9378,4.041,Aalst,Belgium,0,,0.0,en,0.0,,0.0,,0.0,,0.0,,0.0,,1.0,en,1.0,,1.0,,1.0,,1.0,,1.0,,1.0,,1.0,,1.0,,1.0,,1.0,,1.0,,1.0,,1.0,,1.0,
11,Aalst-Belgium2,50.9378,4.041,Aalst,Belgium,0,,0.0,en,0.0,,0.0,,0.0,,0.0,,0.0,,0.0,,0.0,,0.0,,0.0,,0.0,,0.0,,1.0,fr,1.0,,1.0,,1.0,,1.0,,1.0,,1.0,,1.0,,1.0,
12,Aalten-Netherlands0,51.9267,6.5807,Aalten,Netherlands,0,,0.0,en,0.0,,0.0,,1.0,en,1.0,,1.0,,1.0,,1.0,,1.0,,1.0,,1.0,,1.0,,1.0,,1.0,,1.0,,1.0,,1.0,,1.0,,1.0,,1.0,,1.0,
13,Aalter-Belgium3,51.0873,3.4484,Aalter,Belgium,0,,0.0,en,0.0,,0.0,,0.0,,0.0,,0.0,,0.0,,0.0,,0.0,,0.0,,0.0,,1.0,pt,1.0,,1.0,,1.0,,1.0,,1.0,,1.0,,1.0,,1.0,,1.0,
14,Aarau-Switzerland0,47.3934,8.0431,Aarau,Switzerland,0,,1.0,en,2.0,en,2.0,,2.0,,2.0,,3.0,en,3.0,,3.0,,3.0,,3.0,,3.0,,3.0,,3.0,,3.0,,3.0,,3.0,,3.0,,3.0,,3.0,,3.0,,3.0,
15,Aarhus-Denmark0,56.1629,10.2039,Aarhus,Denmark,0,,12.0,en,26.0,en,26.0,,27.0,en,28.0,en,28.0,,28.0,,29.0,en,29.0,,30.0,en,30.0,,30.0,,30.0,,30.0,,30.0,,30.0,,30.0,,30.0,,30.0,,30.0,,30.0,
16,Aarhus-Denmark3,56.1629,10.2039,Aarhus,Denmark,0,,0.0,en,0.0,,0.0,,0.0,,0.0,,0.0,,0.0,,0.0,,0.0,,0.0,,0.0,,0.0,,0.0,,0.0,,0.0,,0.0,,0.0,,0.0,,1.0,pt,1.0,,1.0,
17,Aarschot-Belgium0,50.986,4.8365,Aarschot,Belgium,0,,0.0,en,1.0,en,2.0,en,2.0,,2.0,,2.0,,2.0,,2.0,,2.0,,2.0,,2.0,,2.0,,2.0,,2.0,,2.0,,2.0,,2.0,,2.0,,2.0,,2.0,,2.0,
18,Abaetetuba-Brazil3,-1.7636,-48.8397,Abaetetuba,Brazil,0,,0.0,en,0.0,,0.0,,0.0,,0.0,,0.0,,0.0,,0.0,,0.0,,0.0,,0.0,,0.0,,1.0,pt,1.0,,1.0,,1.0,,1.0,,1.0,,1.0,,1.0,,1.0,
19,Abano Terme-Italy0,45.3587,11.7883,Abano Terme,Italy,0,,1.0,en,2.0,en,2.0,,2.0,,2.0,,2.0,,2.0,,2.0,,2.0,,2.0,,2.0,,2.0,,2.0,,2.0,,2.0,,2.0,,2.0,,2.0,,2.0,,2.0,,2.0,
20,Abbeville-United States0,29.9746,-92.1343,Abbeville,United States,0,,2.0,en,4.0,en,5.0,en,5.0,,5.0,,5.0,,5.0,,5.0,,5.0,,5.0,,5.0,,5.0,,5.0,,5.0,,5.0,,5.0,,5.0,,5.0,,5.0,,5.0,,5.0,
21,Abbotsford-Canada0,49.0546,-122.328,Abbotsford,Canada,0,,8.0,en,22.0,en,26.0,en,33.0,en,36.0,en,37.0,en,37.0,,39.0,en,39.0,,40.0,en,40.0,,40.0,,40.0,,40.0,,41.0,en,41.0,,41.0,,41.0,,41.0,,41.0,,41.0,
22,Abbotsford-Canada1,49.0546,-122.328,Abbotsford,Canada,0,,0.0,en,0.0,,0.0,,0.0,,0.0,,0.0,,0.0,,0.0,,0.0,,0.0,,0.0,,0.0,,0.0,,0.0,,0.0,,0.0,,0.0,,0.0,,0.0,,0.0,,0.0,
23,Abbotsford-Canada2,49.0546,-122.328,Abbotsford,Canada,0,,0.0,en,0.0,,0.0,,0.0,,0.0,,0.0,,0.0,,0.0,,0.0,,0.0,,0.0,,0.0,,0.0,,0.0,,0.0,,0.0,,0.0,,0.0,,0.0,,0.0,,0.0,
24,Aberdeen Proving Ground-United States0,39.4725,-76.13,Aberdeen Proving Ground,United States,0,,6.0,en,7.0,en,7.0,,7.0,,7.0,,7.0,,7.0,,7.0,,8.0,en,8.0,,8.0,,9.0,en,9.0,,9.0,,9.0,,9.0,,9.0,,9.0,,9.0,,9.0,,9.0,
25,Aberdeen Township-United States0,40.4171,-74.2221,Aberdeen Township,United States,0,,3.0,en,4.0,en,4.0,,4.0,,5.0,en,5.0,,5.0,,6.0,en,6.0,,6.0,,6.0,,6.0,,6.0,,6.0,,6.0,,6.0,,6.0,,6.0,,6.0,,6.0,,6.0,
26,Aberdeen-United Kingdom0,57.1497,-2.0943,Aberdeen,United Kingdom,0,,78.0,en,149.0,en,166.0,en,188.0,en,194.0,en,196.0,en,201.0,en,203.0,en,211.0,en,213.0,en,213.0,,214.0,en,214.0,,215.0,en,215.0,,215.0,,215.0,,215.0,,216.0,en,216.0,,216.0,
27,Aberdeen-United Kingdom1,57.1497,-2.0943,Aberdeen,United Kingdom,0,,0.0,en,0.0,,0.0,,0.0,,0.0,,0.0,,0.0,,0.0,,0.0,,0.0,,0.0,,0.0,,0.0,,0.0,,0.0,,0.0,,0.0,,0.0,,0.0,,0.0,,0.0,
28,Aberdeen-United Kingdom2,57.1497,-2.0943,Aberdeen,United Kingdom,0,,0.0,en,0.0,,0.0,,0.0,,0.0,,0.0,,0.0,,0.0,,0.0,,0.0,,0.0,,0.0,,0.0,,0.0,,0.0,,0.0,,0.0,,0.0,,0.0,,0.0,,0.0,
29,Aberdeen-United Kingdom3,57.1497,-2.0943,Aberdeen,United Kingdom,0,,0.0,en,0.0,,0.0,,0.0,,0.0,,0.0,,0.0,,0.0,,0.0,,0.0,,0.0,,0.0,,1.0,pt,1.0,,1.0,,1.0,,1.0,,1.0,,1.0,,1.0,,1.0,
30,Aberdeen-United States0,45.4647,-98.4865,Aberdeen,United States,0,,0.0,en,0.0,,0.0,,0.0,,0.0,,0.0,,0.0,,0.0,,0.0,,0.0,,0.0,,0.0,,0.0,,0.0,,0.0,,0.0,,0.0,,0.0,,0.0,,0.0,,0.0,
31,Abergavenny-United Kingdom0,51.8254,-3.0194,Abergavenny,United Kingdom,0,,1.0,en,1.0,,1.0,,1.0,,1.0,,1.0,,1.0,,1.0,,1.0,,1.0,,1.0,,1.0,,1.0,,1.0,,1.0,,1.0,,1.0,,1.0,,1.0,,1.0,,1.0,
32,Aberystwyth-United Kingdom0,52.4153,-4.0829,Aberystwyth,United Kingdom,0,,7.0,en,11.0,en,12.0,en,13.0,en,13.0,,16.0,en,16.0,,17.0,en,17.0,,18.0,en,18.0,,18.0,,18.0,,18.0,,18.0,,18.0,,18.0,,18.0,,18.0,,18.0,,18.0,
33,Aberystwyth-United Kingdom3,52.4153,-4.0829,Aberystwyth,United Kingdom,0,,0.0,en,0.0,,0.0,,0.0,,0.0,,0.0,,0.0,,0.0,,1.0,pt,1.0,,1.0,,1.0,,1.0,,1.0,,1.0,,1.0,,1.0,,1.0,,1.0,,1.0,,1.0,
34,Abha-Saudi Arabia0,18.2233,42.5072,Abha,Saudi Arabia,0,,0.0,en,0.0,,0.0,,1.0,en,1.0,,1.0,,1.0,,1.0,,1.0,,1.0,,1.0,,1.0,,1.0,,1.0,,1.0,,1.0,,1.0,,1.0,,1.0,,1.0,,1.0,
35,Abidjan-Côte d’Ivoire3,5.3363,-4.0278,Abidjan,Côte d’Ivoire,0,,0.0,en,0.0,,0.0,,0.0,,0.0,,0.0,,0.0,,0.0,,0.0,,0.0,,0.0,,0.0,,1.0,pt,1.0,,1.0,,1.0,,1.0,,1.0,,1.0,,1.0,,1.0,
36,Abilene-United States0,32.4487,-99.7331,Abilene,United States,0,,21.0,en,52.0,en,63.0,en,66.0,en,66.0,,68.0,en,70.0,en,72.0,en,72.0,,72.0,,74.0,en,75.0,en,75.0,,75.0,,75.0,,75.0,,75.0,,75.0,,75.0,,75.0,,75.0,
37,Abingdon-United Kingdom0,51.6708,-1.288,Abingdon,United Kingdom,0,,0.0,en,1.0,en,5.0,en,6.0,en,6.0,,6.0,,6.0,,6.0,,6.0,,7.0,en,7.0,,8.0,en,8.0,,8.0,,9.0,en,9.0,,9.0,,9.0,,9.0,,9.0,,9.0,
38,Abingdon-United Kingdom1,51.6708,-1.288,Abingdon,United Kingdom,0,,0.0,en,0.0,,0.0,,0.0,,0.0,,0.0,,0.0,,0.0,,0.0,,0.0,,0.0,,0.0,,0.0,,0.0,,0.0,,0.0,,0.0,,0.0,,0.0,,0.0,,0.0,
39,Abingdon-United Kingdom2,51.6708,-1.288,Abingdon,United Kingdom,0,,0.0,en,0.0,,0.0,,0.0,,0.0,,0.0,,0.0,,0.0,,0.0,,0.0,,0.0,,0.0,,0.0,,0.0,,0.0,,0.0,,0.0,,0.0,,0.0,,0.0,,0.0,
40,Abingdon-United States0,36.7098,-81.9773,Abingdon,United States,0,,2.0,en,2.0,,2.0,,2.0,,2.0,,2.0,,2.0,,2.0,,2.0,,2.0,,2.0,,2.0,,2.0,,2.0,,2.0,,2.0,,2.0,,2.0,,2.0,,2.0,,2.0,
41,Abington-United States0,40.1198,-75.1254,Abington,United States,0,,8.0,en,12.0,en,13.0,en,14.0,en,14.0,,15.0,en,15.0,,15.0,,15.0,,15.0,,15.0,,15.0,,15.0,,15.0,,15.0,,15.0,,15.0,,15.0,,15.0,,15.0,,15.0,
42,Abu Dhabi-United Arab Emirates0,24.4667,54.3667,Abu Dhabi,United Arab Emirates,0,,12.0,en,49.0,en,83.0,en,96.0,en,102.0,en,105.0,en,107.0,en,108.0,en,109.0,en,111.0,en,116.0,en,117.0,en,118.0,en,118.0,,119.0,en,120.0,en,120.0,,120.0,,120.0,,120.0,,120.0,
43,Abu Dhabi-United Arab Emirates1,24.4667,54.3667,Abu Dhabi,United Arab Emirates,0,,0.0,en,0.0,,0.0,,0.0,,0.0,,0.0,,0.0,,0.0,,0.0,,0.0,,0.0,,0.0,,0.0,,0.0,,0.0,,0.0,,0.0,,0.0,,0.0,,0.0,,0.0,
44,Abu Dhabi-United Arab Emirates2,24.4667,54.3667,Abu Dhabi,United Arab Emirates,0,,0.0,en,0.0,,0.0,,0.0,,0.0,,0.0,,0.0,,0.0,,0.0,,0.0,,0.0,,0.0,,0.0,,0.0,,0.0,,0.0,,0.0,,0.0,,0.0,,0.0,,0.0,
45,Abu Dhabi-United Arab Emirates3,24.4667,54.3667,Abu Dhabi,United Arab Emirates,0,,0.0,en,0.0,,0.0,,0.0,,0.0,,0.0,,0.0,,0.0,,0.0,,0.0,,0.0,,0.0,,0.0,,0.0,,0.0,,0.0,,0.0,,0.0,,0.0,,0.0,,0.0,
46,Abuja-Nigeria0,9.0667,7.4833,Abuja,Nigeria,0,,0.0,en,1.0,en,1.0,,1.0,,1.0,,1.0,,1.0,,1.0,,1.0,,1.0,,1.0,,1.0,,1.0,,1.0,,1.0,,1.0,,1.0,,1.0,,1.0,,1.0,,1.0,
47,Acapulco-Mexico0,16.8638,-99.8816,Acapulco,Mexico,0,,1.0,en,2.0,en,2.0,,2.0,,2.0,,3.0,en,3.0,,4.0,en,4.0,,4.0,,4.0,,4.0,,4.0,,4.0,,4.0,,4.0,,4.0,,4.0,,4.0,,4.0,,4.0,
48,Acapulco-Mexico1,16.8638,-99.8816,Acapulco,Mexico,0,,0.0,en,0.0,,0.0,,0.0,,0.0,,0.0,,0.0,,0.0,,0.0,,0.0,,0.0,,1.0,es,6.0,es,7.0,es,7.0,,7.0,,7.0,,7.0,,7.0,,7.0,,7.0,
49,Accokeek-United States0,38.6676,-77.0283,Accokeek,United States,0,,0.0,en,1.0,en,1.0,,1.0,,1.0,,1.0,,1.0,,1.0,,1.0,,1.0,,1.0,,1.0,,1.0,,1.0,,1.0,,1.0,,1.0,,1.0,,1.0,,1.0,,1.0,
50,Accra-Ghana0,5.5557,-0.1963,Accra,Ghana,0,,0.0,en,5.0,en,8.0,en,8.0,,11.0,en,11.0,,11.0,,11.0,,13.0,en,17.0,en,17.0,,17.0,,17.0,,17.0,,17.0,,17.0,,17.0,,17.0,,17.0,,17.0,,17.0,
51,Accra-Ghana2,5.5557,-0.1963,Accra,Ghana,0,,0.0,en,0.0,,0.0,,0.0,,0.0,,0.0,,0.0,,0.0,,0.0,,0.0,,0.0,,0.0,,0.0,,0.0,,0.0,,0.0,,0.0,,0.0,,0.0,,0.0,,0.0,
52,Accrington-United Kingdom0,53.7536,-2.3722,Accrington,United Kingdom,0,,4.0,en,6.0,en,9.0,en,9.0,,9.0,,9.0,,9.0,,9.0,,9.0,,9.0,,9.0,,9.0,,9.0,,9.0,,9.0,,9.0,,9.0,,9.0,,9.0,,9.0,,9.0,
53,Acireale-Italy0,37.6078,15.1667,Acireale,Italy,0,,0.0,en,1.0,en,1.0,,1.0,,1.0,,1.0,,1.0,,1.0,,1.0,,1.0,,1.0,,1.0,,1.0,,1.0,,1.0,,1.0,,1.0,,1.0,,1.0,,1.0,,1.0,
54,Ackerman-United States0,33.3101,-89.1728,Ackerman,United States,0,,1.0,en,1.0,,1.0,,1.0,,1.0,,1.0,,1.0,,1.0,,1.0,,1.0,,1.0,,1.0,,1.0,,1.0,,1.0,,1.0,,1.0,,1.0,,1.0,,1.0,,1.0,
55,Acme-United States0,40.1266,-79.4288,Acme,United States,0,,0.0,en,1.0,en,1.0,,1.0,,1.0,,1.0,,2.0,en,2.0,,2.0,,2.0,,2.0,,2.0,,2.0,,2.0,,2.0,,2.0,,2.0,,2.0,,2.0,,2.0,,2.0,
56,Acton Vale-Canada2,45.6471,-72.5651,Acton Vale,Canada,0,,0.0,en,0.0,,0.0,,0.0,,1.0,fr,1.0,,1.0,,1.0,,1.0,,1.0,,1.0,,1.0,,1.0,,1.0,,1.0,,1.0,,1.0,,1.0,,1.0,,1.0,,1.0,
57,Acton-United States0,42.4851,-71.4328,Acton,United States,0,,8.0,en,9.0,en,10.0,en,13.0,en,14.0,en,14.0,,14.0,,14.0,,15.0,en,15.0,,15.0,,15.0,,15.0,,15.0,,15.0,,15.0,,15.0,,16.0,en,16.0,,16.0,,16.0,
58,Acton-United States1,42.4851,-71.4328,Acton,United States,0,,0.0,en,0.0,,0.0,,0.0,,0.0,,0.0,,0.0,,0.0,,0.0,,0.0,,0.0,,0.0,,0.0,,0.0,,0.0,,0.0,,0.0,,0.0,,0.0,,0.0,,0.0,
59,Acton-United States2,42.4851,-71.4328,Acton,United States,0,,0.0,en,0.0,,0.0,,0.0,,0.0,,0.0,,0.0,,0.0,,0.0,,0.0,,0.0,,0.0,,0.0,,0.0,,0.0,,0.0,,0.0,,0.0,,0.0,,0.0,,0.0,
60,Acworth-United States0,34.0659,-84.6769,Acworth,United States,0,,12.0,en,22.0,en,26.0,en,33.0,en,35.0,en,36.0,en,37.0,en,37.0,,37.0,,37.0,,37.0,,37.0,,37.0,,37.0,,37.0,,37.0,,37.0,,37.0,,37.0,,37.0,,37.0,
61,Acworth-United States3,34.0659,-84.6769,Acworth,United States,0,,0.0,en,0.0,,0.0,,0.0,,0.0,,0.0,,0.0,,0.0,,0.0,,0.0,,1.0,pt,1.0,,1.0,,1.0,,1.0,,1.0,,2.0,pt,2.0,,2.0,,2.0,,2.0,
62,Ada-United States0,40.7695,-83.8227,Ada,United States,0,,5.0,en,8.0,en,14.0,en,16.0,en,18.0,en,18.0,,18.0,,18.0,,18.0,,18.0,,18.0,,18.0,,18.0,,18.0,,18.0,,18.0,,18.0,,18.0,,18.0,,18.0,,18.0,
63,Ada-United States3,40.7695,-83.8227,Ada,United States,0,,0.0,en,0.0,,0.0,,0.0,,0.0,,0.0,,0.0,,0.0,,0.0,,1.0,pt,1.0,,1.0,,2.0,pt,2.0,,2.0,,2.0,,2.0,,2.0,,2.0,,2.0,,2.0,
64,Adairsville-United States0,34.3687,-84.9341,Adairsville,United States,0,,0.0,en,1.0,en,1.0,,1.0,,1.0,,1.0,,1.0,,1.0,,1.0,,1.0,,1.0,,1.0,,1.0,,1.0,,1.0,,1.0,,1.0,,1.0,,1.0,,1.0,,1.0,
65,Adamantina-Brazil3,-21.5791,-51.0332,Adamantina,Brazil,0,,0.0,en,0.0,,0.0,,0.0,,0.0,,0.0,,0.0,,0.0,,0.0,,0.0,,1.0,pt,2.0,pt,2.0,,2.0,,3.0,pt,4.0,pt,4.0,,4.0,,4.0,,4.0,,4.0,
66,Adams-United States0,42.6242,-73.1174,Adams,United States,0,,1.0,en,2.0,en,2.0,,2.0,,2.0,,2.0,,4.0,en,4.0,,4.0,,4.0,,4.0,,4.0,,4.0,,4.0,,4.0,,4.0,,4.0,,4.0,,4.0,,4.0,,4.0,
67,Adana-Turkey0,37.0,35.3213,Adana,Turkey,0,,2.0,en,3.0,en,4.0,en,4.0,,6.0,en,6.0,,6.0,,6.0,,6.0,,6.0,,7.0,en,7.0,,7.0,,7.0,,7.0,,7.0,,7.0,,7.0,,7.0,,7.0,,7.0,
68,Addis Ababa-Ethiopia0,9.0227,38.7468,Addis Ababa,Ethiopia,0,,0.0,en,3.0,en,3.0,,4.0,en,4.0,,4.0,,4.0,,4.0,,4.0,,4.0,,4.0,,4.0,,4.0,,4.0,,4.0,,4.0,,4.0,,4.0,,4.0,,4.0,,4.0,
69,Addis Ababa-Ethiopia3,9.0227,38.7468,Addis Ababa,Ethiopia,0,,0.0,en,0.0,,0.0,,0.0,,0.0,,0.0,,0.0,,0.0,,0.0,,0.0,,0.0,,1.0,pt,1.0,,1.0,,1.0,,2.0,pt,2.0,,3.0,pt,3.0,,3.0,,3.0,
70,Addis-United States0,30.3538,-91.2654,Addis,United States,0,,0.0,en,1.0,en,1.0,,1.0,,1.0,,1.0,,1.0,,1.0,,1.0,,1.0,,1.0,,1.0,,1.0,,1.0,,1.0,,1.0,,1.0,,1.0,,1.0,,1.0,,1.0,
71,Addison-United States0,41.9317,-87.989,Addison,United States,0,,5.0,en,14.0,en,29.0,en,31.0,en,32.0,en,35.0,en,37.0,en,38.0,en,41.0,en,41.0,,41.0,,41.0,,41.0,,41.0,,41.0,,41.0,,41.0,,41.0,,41.0,,41.0,,41.0,
72,Addlestone-United Kingdom0,51.3698,-0.4886,Addlestone,United Kingdom,0,,0.0,en,2.0,en,2.0,,6.0,en,7.0,en,7.0,,7.0,,7.0,,7.0,,7.0,,7.0,,7.0,,7.0,,7.0,,7.0,,7.0,,7.0,,7.0,,7.0,,7.0,,7.0,
73,Adelaide-Australia0,-34.9286,138.6,Adelaide,Australia,0,,65.0,en,165.0,en,194.0,en,228.0,en,241.0,en,248.0,en,248.0,,252.0,en,254.0,en,255.0,en,259.0,en,261.0,en,262.0,en,262.0,,262.0,,263.0,en,263.0,,264.0,en,265.0,en,266.0,en,267.0,en
74,Adelaide-Australia1,-34.9286,138.6,Adelaide,Australia,0,,0.0,en,0.0,,0.0,,0.0,,0.0,,0.0,,0.0,,0.0,,0.0,,0.0,,0.0,,0.0,,0.0,,0.0,,0.0,,0.0,,0.0,,0.0,,0.0,,0.0,,0.0,
75,Adelaide-Australia2,-34.9286,138.6,Adelaide,Australia,0,,0.0,en,0.0,,0.0,,0.0,,0.0,,0.0,,0.0,,0.0,,0.0,,0.0,,0.0,,0.0,,0.0,,0.0,,0.0,,0.0,,0.0,,0.0,,0.0,,0.0,,0.0,
76,Adelaide-Australia3,-34.9286,138.6,Adelaide,Australia,0,,0.0,en,0.0,,0.0,,0.0,,0.0,,0.0,,0.0,,0.0,,0.0,,0.0,,0.0,,0.0,,0.0,,1.0,pt,1.0,,1.0,,1.0,,1.0,,1.0,,1.0,,1.0,
77,Adelphi-United States0,39.0032,-76.9719,Adelphi,United States,0,,2.0,en,3.0,en,4.0,en,4.0,,4.0,,4.0,,4.0,,4.0,,4.0,,4.0,,4.0,,4.0,,4.0,,4.0,,4.0,,4.0,,4.0,,4.0,,4.0,,4.0,,4.0,
78,Adliswil-Switzerland0,47.3117,8.5245,Adliswil,Switzerland,0,,1.0,en,1.0,,1.0,,1.0,,1.0,,2.0,en,2.0,,2.0,,2.0,,2.0,,2.0,,2.0,,2.0,,2.0,,2.0,,2.0,,2.0,,2.0,,2.0,,2.0,,2.0,
79,Adrian-United States0,41.8975,-84.0372,Adrian,United States,0,,4.0,en,29.0,en,31.0,en,31.0,,34.0,en,34.0,,34.0,,34.0,,34.0,,34.0,,34.0,,34.0,,34.0,,34.0,,34.0,,34.0,,34.0,,34.0,,34.0,,34.0,,34.0,
80,Adrogue-Argentina1,-34.8012,-58.3889,Adrogue,Argentina,0,,0.0,en,0.0,,0.0,,0.0,,0.0,,0.0,,0.0,,0.0,,0.0,,0.0,,0.0,,0.0,,1.0,es,1.0,,1.0,,1.0,,1.0,,1.0,,1.0,,1.0,,1.0,
81,Affton-United States0,38.5506,-90.3332,Affton,United States,0,,74.0,en,199.0,en,237.0,en,250.0,en,255.0,en,256.0,en,262.0,en,264.0,en,269.0,en,272.0,en,275.0,en,276.0,en,277.0,en,277.0,,288.0,en,294.0,en,297.0,en,297.0,,298.0,en,298.0,,298.0,
82,Affton-United States1,38.5506,-90.3332,Affton,United States,0,,0.0,en,0.0,,0.0,,0.0,,0.0,,0.0,,0.0,,0.0,,0.0,,0.0,,0.0,,0.0,,0.0,,0.0,,0.0,,0.0,,0.0,,0.0,,0.0,,0.0,,0.0,
83,Affton-United States2,38.5506,-90.3332,Affton,United States,0,,0.0,en,0.0,,0.0,,0.0,,0.0,,0.0,,0.0,,0.0,,0.0,,0.0,,0.0,,0.0,,0.0,,0.0,,0.0,,0.0,,0.0,,0.0,,0.0,,0.0,,0.0,
84,Affton-United States3,40.04,75.34,Affton,United States,0,,0.0,en,0.0,,0.0,,0.0,,0.0,,0.0,,0.0,,0.0,,0.0,,0.0,,0.0,,0.0,,0.0,,0.0,,0.0,,0.0,,0.0,,0.0,,0.0,,0.0,,2.0,pt
85,Afonso Claudio-Brazil1,-20.0807,-41.1603,Afonso Claudio,Brazil,0,,0.0,en,0.0,,0.0,,0.0,,0.0,,0.0,,0.0,,0.0,,0.0,,0.0,,0.0,,0.0,,0.0,,1.0,es,1.0,,1.0,,1.0,,1.0,,1.0,,1.0,,1.0,
86,Afonso Claudio-Brazil3,-20.0807,-41.1603,Afonso Claudio,Brazil,0,,0.0,en,0.0,,0.0,,0.0,,0.0,,0.0,,0.0,,0.0,,0.0,,0.0,,1.0,pt,1.0,,1.0,,1.0,,1.0,,1.0,,1.0,,2.0,pt,2.0,,2.0,,2.0,
87,Afton-United States0,42.2281,-75.5266,Afton,United States,0,,0.0,en,1.0,en,1.0,,1.0,,1.0,,1.0,,1.0,,1.0,,1.0,,1.0,,1.0,,1.0,,1.0,,1.0,,1.0,,1.0,,1.0,,1.0,,1.0,,1.0,,1.0,
88,Afyonkarahisar-Turkey0,38.7507,30.5567,Afyonkarahisar,Turkey,0,,0.0,en,2.0,en,2.0,,2.0,,2.0,,2.0,,2.0,,2.0,,2.0,,2.0,,2.0,,2.0,,2.0,,2.0,,2.0,,2.0,,2.0,,2.0,,2.0,,2.0,,2.0,
89,Agadir-Morocco0,30.4333,-9.6,Agadir,Morocco,0,,0.0,en,2.0,en,2.0,,2.0,,2.0,,2.0,,2.0,,2.0,,2.0,,2.0,,2.0,,2.0,,2.0,,2.0,,2.0,,2.0,,2.0,,2.0,,2.0,,2.0,,2.0,
90,Agadir-Morocco2,30.4333,-9.6,Agadir,Morocco,0,,0.0,en,0.0,,0.0,,0.0,,0.0,,2.0,fr,2.0,,2.0,,2.0,,2.0,,2.0,,2.0,,2.0,,2.0,,2.0,,2.0,,2.0,,2.0,,2.0,,2.0,,2.0,
91,Agadir-Morocco3,30.4333,-9.6,Agadir,Morocco,0,,0.0,en,0.0,,0.0,,0.0,,0.0,,0.0,,0.0,,0.0,,0.0,,0.0,,0.0,,1.0,pt,1.0,,1.0,,1.0,,1.0,,1.0,,1.0,,1.0,,1.0,,1.0,
92,Agawam-United States0,42.0695,-72.6148,Agawam,United States,0,,3.0,en,5.0,en,5.0,,5.0,,5.0,,5.0,,5.0,,5.0,,5.0,,5.0,,5.0,,5.0,,5.0,,5.0,,5.0,,5.0,,5.0,,5.0,,5.0,,5.0,,5.0,
93,Agde-France2,43.3125,3.4708,Agde,France,0,,0.0,en,0.0,,0.0,,1.0,fr,2.0,fr,2.0,,2.0,,3.0,fr,3.0,,3.0,,3.0,,3.0,,3.0,,3.0,,3.0,,3.0,,3.0,,3.0,,3.0,,3.0,,3.0,
94,Agen-France0,44.2031,0.6164,Agen,France,0,,0.0,en,0.0,,0.0,,1.0,en,1.0,,1.0,,1.0,,1.0,,1.0,,1.0,,1.0,,1.0,,1.0,,1.0,,1.0,,1.0,,1.0,,1.0,,1.0,,1.0,,1.0,
95,Agen-France2,44.2031,0.6164,Agen,France,0,,0.0,en,0.0,,0.0,,0.0,,1.0,fr,3.0,fr,5.0,fr,6.0,fr,6.0,,6.0,,6.0,,6.0,,6.0,,6.0,,6.0,,6.0,,6.0,,6.0,,6.0,,6.0,,6.0,
96,Ageo-Japan0,35.9774,139.5932,Ageo,Japan,0,,0.0,en,0.0,,1.0,en,1.0,,1.0,,1.0,,1.0,,1.0,,1.0,,1.0,,1.0,,1.0,,1.0,,1.0,,1.0,,1.0,,1.0,,1.0,,1.0,,1.0,,1.0,
97,Agoura Hills-United States0,34.1533,-118.7617,Agoura Hills,United States,0,,16.0,en,25.0,en,29.0,en,30.0,en,32.0,en,32.0,,32.0,,32.0,,32.0,,33.0,en,33.0,,34.0,en,34.0,,34.0,,34.0,,34.0,,34.0,,34.0,,34.0,,34.0,,34.0,
98,Agoura Hills-United States3,34.1533,-118.7617,Agoura Hills,United States,0,,0.0,en,0.0,,0.0,,0.0,,0.0,,0.0,,0.0,,0.0,,0.0,,0.0,,0.0,,0.0,,0.0,,0.0,,0.0,,0.0,,0.0,,0.0,,0.0,,0.0,,0.0,
99,Agra-India0,27.1767,78.0081,Agra,India,0,,0.0,en,5.0,en,6.0,en,9.0,en,9.0,,9.0,,9.0,,9.0,,9.0,,9.0,,9.0,,9.0,,9.0,,9.0,,9.0,,9.0,,9.0,,9.0,,9.0,,10.0,en,10.0,
100,Agra-India1,27.1767,78.0081,Agra,India,0,,0.0,en,0.0,,0.0,,0.0,,0.0,,0.0,,0.0,,0.0,,0.0,,0.0,,0.0,,0.0,,0.0,,0.0,,0.0,,0.0,,0.0,,0.0,,0.0,,0.0,,0.0,
101,Agra-India2,27.1767,78.0081,Agra,India,0,,0.0,en,0.0,,0.0,,0.0,,0.0,,0.0,,0.0,,0.0,,0.0,,0.0,,0.0,,0.0,,0.0,,0.0,,0.0,,0.0,,0.0,,0.0,,0.0,,0.0,,0.0,
102,Agropoli-Italy0,40.3487,14.9912,Agropoli,Italy,0,,0.0,en,0.0,,1.0,en,1.0,,1.0,,1.0,,1.0,,1.0,,1.0,,1.0,,1.0,,1.0,,1.0,,1.0,,1.0,,1.0,,1.0,,1.0,,1.0,,1.0,,1.0,
103,Aguascalientes-Mexico0,21.8828,-102.2946,Aguascalientes,Mexico,0,,3.0,en,15.0,en,16.0,en,17.0,en,17.0,,17.0,,17.0,,17.0,,17.0,,17.0,,17.0,,17.0,,17.0,,17.0,,17.0,,17.0,,17.0,,17.0,,17.0,,17.0,,17.0,
104,Aguascalientes-Mexico1,21.8828,-102.2946,Aguascalientes,Mexico,0,,0.0,en,0.0,,0.0,,0.0,,0.0,,0.0,,0.0,,0.0,,0.0,,0.0,,0.0,,13.0,es,21.0,es,35.0,es,35.0,,35.0,,35.0,,35.0,,35.0,,35.0,,35.0,
105,Aguascalientes-Mexico3,21.8828,-102.2946,Aguascalientes,Mexico,0,,0.0,en,0.0,,0.0,,0.0,,0.0,,0.0,,0.0,,0.0,,0.0,,0.0,,0.0,,0.0,,0.0,,0.0,,1.0,pt,1.0,,1.0,,1.0,,1.0,,1.0,,1.0,
106,Agudos-Brazil3,-22.5699,-49.0817,Agudos,Brazil,0,,0.0,en,0.0,,0.0,,0.0,,0.0,,0.0,,0.0,,0.0,,1.0,pt,1.0,,3.0,pt,4.0,pt,5.0,pt,5.0,,5.0,,5.0,,5.0,,6.0,pt,7.0,pt,7.0,,7.0,
107,Agueda-Portugal3,40.5754,-8.4464,Agueda,Portugal,0,,0.0,en,0.0,,0.0,,0.0,,0.0,,0.0,,0.0,,0.0,,0.0,,0.0,,0.0,,2.0,pt,2.0,,2.0,,3.0,pt,4.0,pt,4.0,,4.0,,4.0,,4.0,,4.0,
108,Ahaus-Germany0,52.0805,7.0101,Ahaus,Germany,0,,0.0,en,0.0,,0.0,,1.0,en,1.0,,1.0,,1.0,,1.0,,1.0,,1.0,,1.0,,1.0,,1.0,,1.0,,1.0,,1.0,,1.0,,1.0,,1.0,,1.0,,1.0,
109,Ahmedabad-India0,23.0396,72.566,Ahmedabad,India,0,,2.0,en,30.0,en,60.0,en,92.0,en,112.0,en,123.0,en,125.0,en,127.0,en,129.0,en,130.0,en,132.0,en,132.0,,136.0,en,136.0,,136.0,,137.0,en,137.0,,137.0,,137.0,,137.0,,138.0,en
110,Ahmedabad-India1,23.0396,72.566,Ahmedabad,India,0,,0.0,en,0.0,,0.0,,0.0,,0.0,,0.0,,0.0,,0.0,,0.0,,0.0,,0.0,,0.0,,0.0,,0.0,,0.0,,0.0,,0.0,,0.0,,0.0,,0.0,,0.0,
111,Ahmedabad-India2,23.0396,72.566,Ahmedabad,India,0,,0.0,en,0.0,,0.0,,0.0,,0.0,,0.0,,0.0,,0.0,,0.0,,0.0,,0.0,,0.0,,0.0,,0.0,,0.0,,0.0,,0.0,,0.0,,0.0,,0.0,,0.0,
112,Ahrensburg-Germany0,53.6764,10.2379,Ahrensburg,Germany,0,,1.0,en,1.0,,1.0,,1.0,,1.0,,1.0,,1.0,,1.0,,1.0,,1.0,,1.0,,1.0,,1.0,,1.0,,1.0,,1.0,,1.0,,1.0,,1.0,,1.0,,1.0,
113,Aibonito-Puerto Rico0,18.14,-66.266,Aibonito,Puerto Rico,0,,0.0,en,0.0,,0.0,,0.0,,0.0,,0.0,,0.0,,0.0,,0.0,,0.0,,0.0,,0.0,,0.0,,0.0,,0.0,,0.0,,1.0,en,1.0,,1.0,,1.0,,1.0,
114,Aibonito-Puerto Rico1,18.14,-66.266,Aibonito,Puerto Rico,0,,0.0,en,0.0,,0.0,,0.0,,0.0,,0.0,,0.0,,0.0,,0.0,,0.0,,0.0,,0.0,,0.0,,1.0,es,1.0,,1.0,,1.0,,1.0,,1.0,,1.0,,1.0,
115,Aibonito-Puerto Rico2,18.14,-66.266,Aibonito,Puerto Rico,0,,0.0,en,0.0,,0.0,,0.0,,0.0,,0.0,,0.0,,0.0,,0.0,,0.0,,0.0,,0.0,,0.0,,0.0,,0.0,,0.0,,0.0,,0.0,,0.0,,0.0,,0.0,
116,Aidlingen-Germany0,48.6791,8.8957,Aidlingen,Germany,0,,0.0,en,0.0,,0.0,,1.0,en,1.0,,1.0,,1.0,,1.0,,1.0,,1.0,,1.0,,1.0,,1.0,,1.0,,1.0,,1.0,,1.0,,1.0,,1.0,,1.0,,1.0,
117,Aikawa-Japan3,35.5288,139.3217,Aikawa,Japan,0,,0.0,en,0.0,,0.0,,0.0,,0.0,,0.0,,0.0,,0.0,,0.0,,0.0,,0.0,,0.0,,0.0,,0.0,,0.0,,0.0,,1.0,pt,1.0,,1.0,,1.0,,1.0,
118,Aiken-United States0,33.5604,-81.7196,Aiken,United States,0,,13.0,en,20.0,en,20.0,,20.0,,20.0,,20.0,,21.0,en,21.0,,21.0,,21.0,,21.0,,21.0,,22.0,en,22.0,,22.0,,22.0,,22.0,,22.0,,22.0,,22.0,,22.0,
119,Airdrie-Canada0,51.2917,-114.0144,Airdrie,Canada,0,,6.0,en,7.0,en,10.0,en,11.0,en,12.0,en,12.0,,12.0,,13.0,en,13.0,,13.0,,13.0,,13.0,,13.0,,13.0,,13.0,,13.0,,13.0,,13.0,,13.0,,13.0,,13.0,
120,Aitkin-United States0,46.533,-93.7102,Aitkin,United States,0,,0.0,en,1.0,en,1.0,,1.0,,1.0,,1.0,,1.0,,1.0,,1.0,,1.0,,1.0,,1.0,,1.0,,1.0,,1.0,,1.0,,1.0,,1.0,,1.0,,1.0,,1.0,
121,Aix-en-Provence-France0,43.5297,5.4474,AixenProvence,France,0,,7.0,en,10.0,en,14.0,en,16.0,en,17.0,en,18.0,en,18.0,,19.0,en,19.0,,19.0,,19.0,,19.0,,19.0,,19.0,,19.0,,19.0,,19.0,,19.0,,19.0,,19.0,,19.0,
122,Aix-en-Provence-France2,43.5297,5.4474,AixenProvence,France,0,,0.0,en,0.0,,0.0,,0.0,,0.0,,0.0,,3.0,fr,3.0,,6.0,fr,8.0,fr,8.0,,13.0,fr,15.0,fr,16.0,fr,16.0,,16.0,,16.0,,16.0,,16.0,,16.0,,16.0,
123,Aix-en-Provence-France3,43.5297,5.4474,AixenProvence,France,0,,0.0,en,0.0,,0.0,,0.0,,0.0,,0.0,,0.0,,0.0,,0.0,,0.0,,0.0,,0.0,,0.0,,0.0,,0.0,,0.0,,0.0,,0.0,,1.0,pt,1.0,,1.0,
124,Ajaccio-France2,41.9192,8.7386,Ajaccio,France,0,,0.0,en,0.0,,1.0,fr,2.0,fr,4.0,fr,4.0,,4.0,,5.0,fr,5.0,,5.0,,5.0,,5.0,,5.0,,5.0,,5.0,,5.0,,5.0,,5.0,,5.0,,5.0,,5.0,
125,Ajaccio-France3,41.9192,8.7386,Ajaccio,France,0,,0.0,en,0.0,,0.0,,0.0,,0.0,,0.0,,0.0,,0.0,,0.0,,0.0,,0.0,,1.0,pt,1.0,,1.0,,1.0,,1.0,,1.0,,1.0,,1.0,,1.0,,1.0,
126,Ajax-Canada0,43.8509,-79.0204,Ajax,Canada,0,,22.0,en,39.0,en,41.0,en,43.0,en,45.0,en,45.0,,45.0,,46.0,en,47.0,en,47.0,,47.0,,47.0,,47.0,,47.0,,47.0,,47.0,,47.0,,47.0,,47.0,,47.0,,47.0,
127,Ajman-United Arab Emirates0,25.403,55.4918,Ajman,United Arab Emirates,0,,0.0,en,1.0,en,1.0,,2.0,en,2.0,,4.0,en,5.0,en,5.0,,5.0,,5.0,,5.0,,5.0,,5.0,,5.0,,5.0,,5.0,,5.0,,5.0,,5.0,,5.0,,9.0,en
128,Ajman-United Arab Emirates1,25.403,55.4918,Ajman,United Arab Emirates,0,,0.0,en,0.0,,0.0,,0.0,,0.0,,0.0,,0.0,,0.0,,0.0,,0.0,,0.0,,0.0,,0.0,,0.0,,0.0,,0.0,,0.0,,0.0,,0.0,,0.0,,0.0,
129,Ajman-United Arab Emirates2,25.403,55.4918,Ajman,United Arab Emirates,0,,0.0,en,0.0,,0.0,,0.0,,0.0,,0.0,,0.0,,0.0,,0.0,,0.0,,0.0,,0.0,,0.0,,0.0,,0.0,,0.0,,0.0,,0.0,,0.0,,0.0,,0.0,
130,Akersberga-Sweden0,59.4803,18.3108,Akersberga,Sweden,0,,0.0,en,1.0,en,1.0,,1.0,,1.0,,1.0,,1.0,,1.0,,1.0,,1.0,,1.0,,1.0,,1.0,,1.0,,1.0,,1.0,,1.0,,1.0,,1.0,,1.0,,1.0,
131,Akersberga-Sweden3,59.4803,18.3108,Akersberga,Sweden,0,,0.0,en,0.0,,0.0,,0.0,,0.0,,0.0,,0.0,,0.0,,0.0,,0.0,,0.0,,1.0,pt,1.0,,1.0,,1.0,,1.0,,1.0,,1.0,,1.0,,1.0,,1.0,
132,Akranes-Iceland0,64.3224,-22.0744,Akranes,Iceland,0,,1.0,en,1.0,,1.0,,1.0,,1.0,,1.0,,1.0,,2.0,en,2.0,,2.0,,2.0,,2.0,,2.0,,2.0,,2.0,,2.0,,2.0,,2.0,,2.0,,2.0,,2.0,
133,Akron-United States0,41.0814,-81.519,Akron,United States,0,,37.0,en,80.0,en,97.0,en,101.0,en,102.0,en,103.0,en,106.0,en,107.0,en,107.0,,107.0,,107.0,,108.0,en,108.0,,108.0,,110.0,en,110.0,,110.0,,110.0,,110.0,,110.0,,110.0,
134,Akron-United States1,41.0814,-81.519,Akron,United States,0,,0.0,en,0.0,,0.0,,0.0,,0.0,,0.0,,0.0,,0.0,,0.0,,0.0,,0.0,,0.0,,0.0,,0.0,,0.0,,0.0,,0.0,,0.0,,0.0,,0.0,,0.0,
135,Akron-United States2,41.0814,-81.519,Akron,United States,0,,0.0,en,0.0,,0.0,,0.0,,0.0,,0.0,,0.0,,0.0,,0.0,,0.0,,0.0,,0.0,,0.0,,0.0,,0.0,,0.0,,0.0,,0.0,,0.0,,0.0,,0.0,
136,Akureyri-Iceland0,65.6839,-18.1105,Akureyri,Iceland,0,,0.0,en,1.0,en,1.0,,1.0,,1.0,,1.0,,1.0,,1.0,,1.0,,1.0,,1.0,,1.0,,1.0,,1.0,,1.0,,1.0,,1.0,,1.0,,1.0,,1.0,,1.0,
137,Al Ain-United Arab Emirates0,24.2075,55.7447,Al Ain,United Arab Emirates,0,,0.0,en,8.0,en,13.0,en,15.0,en,17.0,en,17.0,,17.0,,17.0,,17.0,,17.0,,17.0,,17.0,,17.0,,17.0,,17.0,,17.0,,17.0,,17.0,,17.0,,17.0,,17.0,
138,Al Hofuf-Saudi Arabia0,25.3833,49.5833,Al Hofuf,Saudi Arabia,0,,0.0,en,1.0,en,1.0,,1.0,,1.0,,1.0,,1.0,,1.0,,1.0,,1.0,,1.0,,1.0,,1.0,,1.0,,1.0,,1.0,,1.0,,1.0,,1.0,,1.0,,1.0,
139,Alabaster-United States0,33.2443,-86.8164,Alabaster,United States,0,,6.0,en,13.0,en,24.0,en,27.0,en,27.0,,27.0,,28.0,en,28.0,,29.0,en,29.0,,31.0,en,31.0,,31.0,,31.0,,31.0,,31.0,,31.0,,31.0,,31.0,,31.0,,31.0,
140,Alachua-United States0,29.7938,-82.4944,Alachua,United States,0,,3.0,en,4.0,en,4.0,,4.0,,5.0,en,5.0,,5.0,,5.0,,5.0,,5.0,,5.0,,5.0,,5.0,,5.0,,5.0,,5.0,,5.0,,5.0,,5.0,,5.0,,5.0,
141,Alagoa Grande-Brazil3,-7.0427,-35.5877,Alagoa Grande,Brazil,0,,0.0,en,0.0,,0.0,,0.0,,0.0,,0.0,,0.0,,0.0,,0.0,,0.0,,0.0,,4.0,pt,5.0,pt,6.0,pt,7.0,pt,7.0,,7.0,,7.0,,7.0,,7.0,,7.0,
142,Alagoinhas-Brazil3,-12.0802,-38.3587,Alagoinhas,Brazil,0,,0.0,en,0.0,,0.0,,0.0,,0.0,,0.0,,0.0,,0.0,,0.0,,0.0,,0.0,,0.0,,0.0,,0.0,,0.0,,0.0,,0.0,,0.0,,0.0,,0.0,,1.0,pt
143,Alajuela-Costa Rica0,10.0167,-84.2167,Alajuela,Costa Rica,0,,3.0,en,5.0,en,5.0,,6.0,en,6.0,,6.0,,6.0,,7.0,en,7.0,,7.0,,7.0,,7.0,,7.0,,9.0,en,9.0,,9.0,,9.0,,9.0,,9.0,,9.0,,9.0,
144,Alajuela-Costa Rica1,10.0167,-84.2167,Alajuela,Costa Rica,0,,0.0,en,0.0,,0.0,,0.0,,0.0,,0.0,,0.0,,0.0,,0.0,,0.0,,0.0,,0.0,,1.0,es,1.0,,1.0,,1.0,,1.0,,1.0,,1.0,,1.0,,1.0,
145,Alameda-United States0,37.7652,-122.2416,Alameda,United States,0,,21.0,en,28.0,en,32.0,en,35.0,en,37.0,en,41.0,en,44.0,en,45.0,en,45.0,,45.0,,45.0,,46.0,en,46.0,,46.0,,46.0,,46.0,,46.0,,48.0,en,48.0,,48.0,,48.0,
146,Alameda-United States1,37.7652,-122.2416,Alameda,United States,0,,0.0,en,0.0,,0.0,,0.0,,0.0,,0.0,,0.0,,0.0,,0.0,,0.0,,0.0,,0.0,,0.0,,0.0,,0.0,,0.0,,0.0,,0.0,,0.0,,0.0,,0.0,
147,Alameda-United States2,37.7652,-122.2416,Alameda,United States,0,,0.0,en,0.0,,0.0,,0.0,,0.0,,0.0,,0.0,,0.0,,0.0,,0.0,,0.0,,0.0,,0.0,,0.0,,0.0,,0.0,,0.0,,0.0,,0.0,,0.0,,0.0,
148,Alameda-United States3,37.7652,-122.2416,Alameda,United States,0,,0.0,en,0.0,,0.0,,0.0,,0.0,,0.0,,0.0,,0.0,,0.0,,1.0,pt,1.0,,1.0,,1.0,,1.0,,1.0,,1.0,,1.0,,1.0,,1.0,,1.0,,1.0,
149,Alamo-United States0,37.8502,-122.0322,Alamo,United States,0,,0.0,en,1.0,en,1.0,,1.0,,1.0,,1.0,,1.0,,1.0,,1.0,,1.0,,1.0,,1.0,,1.0,,1.0,,1.0,,1.0,,1.0,,1.0,,1.0,,1.0,,1.0,
150,Alamogordo-United States0,32.8995,-105.9603,Alamogordo,United States,0,,0.0,en,1.0,en,2.0,en,4.0,en,6.0,en,7.0,en,7.0,,8.0,en,8.0,,8.0,,9.0,en,9.0,,9.0,,9.0,,9.0,,9.0,,9.0,,9.0,,9.0,,9.0,,9.0,
151,Alamosa-United States0,37.4694,-105.87,Alamosa,United States,0,,2.0,en,2.0,,3.0,en,3.0,,3.0,,3.0,,3.0,,3.0,,3.0,,3.0,,3.0,,4.0,en,4.0,,4.0,,4.0,,4.0,,4.0,,4.0,,4.0,,4.0,,4.0,
152,Alanya-Turkey0,36.5601,32.0021,Alanya,Turkey,0,,0.0,en,0.0,,0.0,,0.0,,0.0,,0.0,,0.0,,1.0,en,1.0,,1.0,,1.0,,1.0,,1.0,,1.0,,1.0,,1.0,,1.0,,1.0,,1.0,,1.0,,1.0,
153,Alappuzha-India0,9.4981,76.3388,Alappuzha,India,0,,0.0,en,1.0,en,1.0,,1.0,,1.0,,1.0,,1.0,,1.0,,1.0,,1.0,,1.0,,1.0,,1.0,,1.0,,1.0,,1.0,,1.0,,1.0,,1.0,,1.0,,1.0,
154,Alassio-Italy0,44.0143,8.1812,Alassio,Italy,0,,0.0,en,0.0,,3.0,en,3.0,,3.0,,3.0,,3.0,,3.0,,3.0,,3.0,,3.0,,3.0,,3.0,,3.0,,3.0,,3.0,,3.0,,3.0,,3.0,,3.0,,3.0,
155,Alba-Italy0,44.7009,8.0357,Alba,Italy,0,,1.0,en,1.0,,1.0,,1.0,,1.0,,1.0,,1.0,,1.0,,1.0,,1.0,,1.0,,1.0,,1.0,,1.0,,1.0,,1.0,,1.0,,1.0,,1.0,,1.0,,1.0,
156,Albacete-Spain0,38.9944,-1.8585,Albacete,Spain,0,,0.0,en,2.0,en,2.0,,2.0,,2.0,,2.0,,2.0,,2.0,,2.0,,2.0,,2.0,,2.0,,2.0,,2.0,,2.0,,2.0,,2.0,,2.0,,2.0,,2.0,,2.0,
157,Albacete-Spain1,38.9944,-1.8585,Albacete,Spain,0,,0.0,en,0.0,,0.0,,0.0,,0.0,,0.0,,0.0,,0.0,,0.0,,0.0,,0.0,,0.0,,1.0,es,1.0,,1.0,,1.0,,1.0,,1.0,,1.0,,1.0,,1.0,
158,Albany-Australia0,-34.9755,117.878,Albany,Australia,0,,0.0,en,0.0,,0.0,,0.0,,0.0,,0.0,,0.0,,0.0,,0.0,,0.0,,0.0,,0.0,,0.0,,0.0,,0.0,,0.0,,0.0,,0.0,,0.0,,0.0,,0.0,
159,Albany-United States0,42.6526,-73.7562,Albany,United States,0,,126.0,en,227.0,en,261.0,en,285.0,en,289.0,en,290.0,en,293.0,en,295.0,en,297.0,en,299.0,en,302.0,en,303.0,en,305.0,en,305.0,,305.0,,306.0,en,306.0,,306.0,,306.0,,306.0,,306.0,
160,Albany-United States1,42.6526,-73.7562,Albany,United States,0,,0.0,en,0.0,,0.0,,0.0,,0.0,,0.0,,0.0,,0.0,,0.0,,0.0,,0.0,,0.0,,0.0,,0.0,,0.0,,0.0,,0.0,,0.0,,0.0,,0.0,,0.0,
161,Albany-United States2,42.6526,-73.7562,Albany,United States,0,,0.0,en,0.0,,0.0,,0.0,,0.0,,0.0,,0.0,,0.0,,0.0,,0.0,,0.0,,0.0,,0.0,,0.0,,0.0,,0.0,,0.0,,0.0,,0.0,,0.0,,0.0,
162,Albany-United States3,42.6526,-73.7562,Albany,United States,0,,0.0,en,0.0,,0.0,,0.0,,0.0,,0.0,,0.0,,0.0,,0.0,,0.0,,0.0,,0.0,,0.0,,0.0,,0.0,,0.0,,0.0,,1.0,pt,1.0,,1.0,,1.0,
163,Albemarle County-United States0,38.0567,-78.6115,Albemarle County,United States,0,,0.0,en,1.0,en,1.0,,1.0,,1.0,,1.0,,1.0,,1.0,,1.0,,1.0,,1.0,,1.0,,1.0,,1.0,,1.0,,1.0,,1.0,,1.0,,1.0,,1.0,,1.0,
164,Albemarle-United States0,35.3501,-80.2001,Albemarle,United States,0,,1.0,en,5.0,en,6.0,en,6.0,,6.0,,6.0,,6.0,,6.0,,6.0,,6.0,,6.0,,6.0,,6.0,,6.0,,6.0,,6.0,,6.0,,6.0,,6.0,,6.0,,6.0,
165,Albert Lea-United States0,43.6478,-93.3687,Albert Lea,United States,0,,1.0,en,13.0,en,13.0,,15.0,en,15.0,,15.0,,15.0,,15.0,,15.0,,15.0,,15.0,,15.0,,15.0,,15.0,,15.0,,15.0,,15.0,,15.0,,15.0,,15.0,,15.0,
166,Albertslund-Denmark0,55.6596,12.3571,Albertslund,Denmark,0,,0.0,en,1.0,en,1.0,,1.0,,1.0,,1.0,,1.0,,1.0,,1.0,,1.0,,1.0,,1.0,,1.0,,1.0,,1.0,,1.0,,1.0,,1.0,,1.0,,1.0,,1.0,
167,Albertville-United States0,34.2676,-86.2089,Albertville,United States,0,,1.0,en,1.0,,2.0,en,5.0,en,5.0,,5.0,,5.0,,5.0,,5.0,,5.0,,5.0,,5.0,,5.0,,5.0,,5.0,,5.0,,5.0,,5.0,,5.0,,5.0,,5.0,
168,Albi-France0,43.9269,2.1463,Albi,France,0,,0.0,en,0.0,,0.0,,0.0,,0.0,,0.0,,1.0,en,2.0,en,2.0,,2.0,,2.0,,2.0,,2.0,,2.0,,2.0,,2.0,,2.0,,2.0,,2.0,,2.0,,2.0,
169,Albi-France2,43.9269,2.1463,Albi,France,0,,0.0,en,0.0,,1.0,fr,1.0,,1.0,,1.0,,1.0,,1.0,,1.0,,2.0,fr,2.0,,2.0,,2.0,,2.0,,2.0,,2.0,,2.0,,2.0,,2.0,,2.0,,2.0,
170,Albi-France3,43.9269,2.1463,Albi,France,0,,0.0,en,0.0,,0.0,,0.0,,0.0,,0.0,,0.0,,0.0,,0.0,,0.0,,0.0,,1.0,pt,1.0,,1.0,,2.0,pt,2.0,,2.0,,2.0,,2.0,,2.0,,2.0,
171,Albion-United States0,43.2464,-78.1936,Albion,United States,0,,4.0,en,12.0,en,12.0,,13.0,en,13.0,,14.0,en,14.0,,16.0,en,16.0,,16.0,,17.0,en,17.0,,17.0,,17.0,,17.0,,17.0,,17.0,,17.0,,17.0,,17.0,,17.0,
172,Alboraia-Spain3,39.499,-0.351,Alboraia,Spain,0,,0.0,en,0.0,,0.0,,0.0,,0.0,,0.0,,0.0,,0.0,,0.0,,0.0,,0.0,,1.0,pt,1.0,,1.0,,1.0,,1.0,,1.0,,1.0,,1.0,,1.0,,1.0,
173,Albstadt-Germany0,48.2356,9.0014,Albstadt,Germany,0,,0.0,en,2.0,en,2.0,,2.0,,2.0,,2.0,,2.0,,2.0,,2.0,,2.0,,2.0,,2.0,,2.0,,2.0,,2.0,,2.0,,2.0,,2.0,,2.0,,2.0,,2.0,
174,Albufeira-Portugal3,37.0891,-8.2479,Albufeira,Portugal,0,,0.0,en,0.0,,0.0,,0.0,,0.0,,0.0,,0.0,,0.0,,0.0,,0.0,,3.0,pt,10.0,pt,11.0,pt,12.0,pt,12.0,,12.0,,12.0,,13.0,pt,14.0,pt,15.0,pt,15.0,
175,Albuquerque-United States0,35.1107,-106.61,Albuquerque,United States,0,,123.0,en,200.0,en,237.0,en,263.0,en,274.0,en,283.0,en,287.0,en,292.0,en,320.0,en,348.0,en,350.0,en,351.0,en,351.0,,351.0,,353.0,en,356.0,en,358.0,en,358.0,,358.0,,358.0,,358.0,
176,Albuquerque-United States1,35.1107,-106.61,Albuquerque,United States,0,,0.0,en,0.0,,0.0,,0.0,,0.0,,0.0,,0.0,,0.0,,0.0,,0.0,,0.0,,0.0,,1.0,es,1.0,,1.0,,1.0,,1.0,,1.0,,1.0,,1.0,,1.0,
177,Albuquerque-United States2,35.1107,-106.61,Albuquerque,United States,0,,0.0,en,0.0,,0.0,,0.0,,0.0,,0.0,,0.0,,0.0,,0.0,,0.0,,0.0,,0.0,,0.0,,0.0,,0.0,,0.0,,0.0,,0.0,,0.0,,0.0,,0.0,
178,Albuquerque-United States3,35.1107,-106.61,Albuquerque,United States,0,,0.0,en,0.0,,0.0,,0.0,,0.0,,0.0,,0.0,,0.0,,0.0,,0.0,,0.0,,0.0,,0.0,,0.0,,0.0,,0.0,,0.0,,0.0,,0.0,,0.0,,0.0,
179,Albury-Australia0,-36.0808,146.9165,Albury,Australia,0,,2.0,en,2.0,,2.0,,3.0,en,3.0,,3.0,,3.0,,3.0,,3.0,,3.0,,3.0,,3.0,,3.0,,3.0,,3.0,,3.0,,3.0,,3.0,,3.0,,3.0,,3.0,
180,Alcala de Henares-Spain0,40.4848,-3.3644,Alcala de Henares,Spain,0,,0.0,en,2.0,en,3.0,en,3.0,,3.0,,3.0,,3.0,,3.0,,3.0,,3.0,,3.0,,3.0,,3.0,,3.0,,3.0,,3.0,,3.0,,3.0,,3.0,,3.0,,3.0,
181,Alcala de Henares-Spain1,40.4848,-3.3644,Alcala de Henares,Spain,0,,0.0,en,0.0,,0.0,,0.0,,0.0,,0.0,,0.0,,0.0,,0.0,,0.0,,0.0,,0.0,,2.0,es,2.0,,2.0,,2.0,,2.0,,2.0,,2.0,,2.0,,2.0,
182,Alcala de Henares-Spain3,40.4848,-3.3644,Alcala de Henares,Spain,0,,0.0,en,0.0,,0.0,,0.0,,0.0,,0.0,,0.0,,0.0,,0.0,,1.0,pt,1.0,,1.0,,1.0,,1.0,,1.0,,1.0,,1.0,,1.0,,1.0,,1.0,,1.0,
183,Alcamo-Italy0,37.9784,12.9686,Alcamo,Italy,0,,0.0,en,2.0,en,2.0,,2.0,,2.0,,2.0,,2.0,,2.0,,2.0,,2.0,,2.0,,2.0,,2.0,,2.0,,2.0,,2.0,,2.0,,2.0,,2.0,,2.0,,2.0,
184,Alcester-United Kingdom0,52.2153,-1.8676,Alcester,United Kingdom,0,,1.0,en,1.0,,1.0,,1.0,,1.0,,1.0,,1.0,,1.0,,1.0,,1.0,,1.0,,1.0,,1.0,,1.0,,1.0,,1.0,,1.0,,1.0,,1.0,,1.0,,1.0,
185,Alcobendas-Spain0,40.5445,-3.6401,Alcobendas,Spain,0,,0.0,en,2.0,en,2.0,,2.0,,2.0,,2.0,,2.0,,2.0,,2.0,,2.0,,2.0,,2.0,,2.0,,2.0,,2.0,,2.0,,2.0,,2.0,,2.0,,2.0,,2.0,
186,Alcobendas-Spain1,40.5445,-3.6401,Alcobendas,Spain,0,,0.0,en,0.0,,0.0,,0.0,,0.0,,0.0,,0.0,,0.0,,0.0,,0.0,,0.0,,0.0,,0.0,,2.0,es,2.0,,2.0,,2.0,,2.0,,2.0,,2.0,,2.0,
187,Alcoi-Spain0,38.699,-0.4785,Alcoi,Spain,0,,0.0,en,1.0,en,1.0,,1.0,,1.0,,1.0,,1.0,,1.0,,1.0,,1.0,,1.0,,1.0,,1.0,,1.0,,1.0,,1.0,,1.0,,1.0,,1.0,,1.0,,1.0,
188,Alconbury-United Kingdom0,52.3557,-0.2606,Alconbury,United Kingdom,0,,0.0,en,1.0,en,1.0,,1.0,,1.0,,1.0,,1.0,,1.0,,1.0,,1.0,,1.0,,1.0,,1.0,,1.0,,1.0,,1.0,,1.0,,1.0,,1.0,,1.0,,1.0,
189,Alcorcon-Spain0,40.3468,-3.8278,Alcorcon,Spain,0,,0.0,en,1.0,en,1.0,,1.0,,1.0,,1.0,,1.0,,1.0,,1.0,,1.0,,1.0,,1.0,,1.0,,1.0,,1.0,,1.0,,1.0,,1.0,,1.0,,1.0,,1.0,
190,Alcorcon-Spain1,40.3468,-3.8278,Alcorcon,Spain,0,,0.0,en,0.0,,0.0,,0.0,,0.0,,0.0,,0.0,,0.0,,0.0,,0.0,,0.0,,0.0,,2.0,es,2.0,,2.0,,2.0,,2.0,,2.0,,2.0,,2.0,,2.0,
191,Alcorcon-Spain3,40.3468,-3.8278,Alcorcon,Spain,0,,0.0,en,0.0,,0.0,,0.0,,0.0,,0.0,,0.0,,0.0,,0.0,,0.0,,1.0,pt,1.0,,1.0,,1.0,,1.0,,1.0,,1.0,,1.0,,1.0,,1.0,,1.0,
192,Aldbourne-United Kingdom0,51.4792,-1.6205,Aldbourne,United Kingdom,0,,1.0,en,1.0,,1.0,,1.0,,1.0,,1.0,,1.0,,1.0,,1.0,,1.0,,1.0,,1.0,,2.0,en,2.0,,2.0,,2.0,,2.0,,2.0,,2.0,,2.0,,2.0,
193,Alden-United States0,42.9001,-78.492,Alden,United States,0,,0.0,en,1.0,en,1.0,,1.0,,1.0,,1.0,,1.0,,1.0,,1.0,,1.0,,1.0,,1.0,,2.0,en,2.0,,2.0,,2.0,,2.0,,2.0,,2.0,,2.0,,2.0,
194,Aldenhoven-Germany0,50.8949,6.2871,Aldenhoven,Germany,0,,1.0,en,1.0,,1.0,,1.0,,1.0,,1.0,,1.0,,1.0,,1.0,,1.0,,1.0,,1.0,,1.0,,1.0,,1.0,,1.0,,1.0,,1.0,,1.0,,1.0,,1.0,
195,Aldershot-United Kingdom0,51.2484,-0.7558,Aldershot,United Kingdom,0,,1.0,en,3.0,en,3.0,,5.0,en,5.0,,5.0,,5.0,,5.0,,5.0,,6.0,en,6.0,,6.0,,6.0,,6.0,,6.0,,6.0,,6.0,,6.0,,6.0,,6.0,,6.0,
196,Aldershot-United Kingdom1,51.2484,-0.7558,Aldershot,United Kingdom,0,,0.0,en,0.0,,0.0,,0.0,,0.0,,0.0,,0.0,,0.0,,0.0,,0.0,,0.0,,0.0,,0.0,,1.0,es,1.0,,1.0,,1.0,,1.0,,1.0,,1.0,,1.0,
197,Alderwood Manor-United States0,47.8025,-122.2586,Alderwood Manor,United States,0,,1.0,en,1.0,,1.0,,1.0,,1.0,,1.0,,1.0,,1.0,,1.0,,1.0,,1.0,,1.0,,1.0,,1.0,,1.0,,1.0,,1.0,,1.0,,1.0,,1.0,,1.0,
198,Aledo-United States0,32.696,-97.6022,Aledo,United States,0,,1.0,en,2.0,en,2.0,,4.0,en,4.0,,4.0,,5.0,en,6.0,en,6.0,,6.0,,6.0,,6.0,,6.0,,6.0,,6.0,,6.0,,6.0,,6.0,,6.0,,8.0,en,8.0,
199,Aledo-United States1,41.1998,-90.7493,Aledo,United States,0,,0.0,en,0.0,,0.0,,0.0,,0.0,,0.0,,0.0,,0.0,,0.0,,0.0,,0.0,,0.0,,0.0,,0.0,,0.0,,0.0,,0.0,,0.0,,0.0,,0.0,,0.0,
200,Aledo-United States2,41.1998,-90.7493,Aledo,United States,0,,0.0,en,0.0,,0.0,,0.0,,0.0,,0.0,,0.0,,0.0,,0.0,,0.0,,0.0,,0.0,,0.0,,0.0,,0.0,,0.0,,0.0,,0.0,,0.0,,0.0,,0.0,
201,Alegre-Brazil3,-20.6869,-41.4813,Alegre,Brazil,0,,0.0,en,0.0,,0.0,,0.0,,0.0,,0.0,,0.0,,0.0,,0.0,,0.0,,2.0,pt,2.0,,2.0,,2.0,,2.0,,2.0,,2.0,,2.0,,2.0,,2.0,,2.0,
202,Alegrete-Brazil3,-29.7446,-55.9359,Alegrete,Brazil,0,,0.0,en,0.0,,0.0,,0.0,,0.0,,0.0,,0.0,,0.0,,0.0,,0.0,,4.0,pt,6.0,pt,6.0,,6.0,,7.0,pt,7.0,,7.0,,9.0,pt,9.0,,9.0,,9.0,
203,Alencon-France2,48.4329,0.0913,Alencon,France,0,,0.0,en,0.0,,2.0,fr,2.0,,2.0,,2.0,,2.0,,3.0,fr,3.0,,3.0,,3.0,,3.0,,3.0,,3.0,,3.0,,3.0,,3.0,,3.0,,3.0,,3.0,,3.0,
204,Alexander City-United States0,32.944,-85.9539,Alexander City,United States,0,,6.0,en,6.0,,6.0,,6.0,,6.0,,6.0,,6.0,,6.0,,6.0,,6.0,,6.0,,6.0,,6.0,,6.0,,6.0,,6.0,,6.0,,6.0,,6.0,,6.0,,6.0,
205,Alexandria-Canada0,45.3112,-74.6367,Alexandria,Canada,0,,0.0,en,0.0,,0.0,,0.0,,0.0,,0.0,,0.0,,0.0,,0.0,,0.0,,0.0,,0.0,,0.0,,0.0,,0.0,,0.0,,0.0,,0.0,,0.0,,0.0,,0.0,
206,Alexandria-Egypt0,31.2001,29.9187,Alexandria,Egypt,0,,0.0,en,0.0,,0.0,,0.0,,0.0,,0.0,,0.0,,0.0,,0.0,,0.0,,0.0,,0.0,,0.0,,0.0,,0.0,,0.0,,0.0,,0.0,,0.0,,0.0,,0.0,
207,Alexandria-United Kingdom0,55.9887,-4.5789,Alexandria,United Kingdom,0,,0.0,en,0.0,,0.0,,0.0,,0.0,,0.0,,0.0,,0.0,,0.0,,0.0,,0.0,,0.0,,0.0,,0.0,,0.0,,0.0,,0.0,,0.0,,0.0,,0.0,,0.0,
208,Alexandria-United States0,38.8048,-77.0469,Alexandria,United States,0,,377.0,en,721.0,en,821.0,en,883.0,en,902.0,en,923.0,en,937.0,en,954.0,en,963.0,en,970.0,en,975.0,en,982.0,en,984.0,en,984.0,,988.0,en,991.0,en,994.0,en,999.0,en,999.0,,1001.0,en,1001.0,
209,Alexandria-United States1,38.8048,-77.0469,Alexandria,United States,0,,0.0,en,0.0,,0.0,,0.0,,0.0,,0.0,,0.0,,0.0,,0.0,,0.0,,0.0,,0.0,,0.0,,0.0,,0.0,,0.0,,0.0,,0.0,,0.0,,0.0,,0.0,
210,Alexandria-United States2,38.8048,-77.0469,Alexandria,United States,0,,0.0,en,0.0,,0.0,,0.0,,0.0,,0.0,,0.0,,0.0,,0.0,,0.0,,0.0,,0.0,,0.0,,0.0,,0.0,,0.0,,0.0,,0.0,,0.0,,0.0,,0.0,
211,Alexandria-United States3,38.8048,-77.0469,Alexandria,United States,0,,0.0,en,0.0,,0.0,,0.0,,0.0,,0.0,,0.0,,0.0,,0.0,,0.0,,0.0,,0.0,,0.0,,0.0,,0.0,,0.0,,0.0,,0.0,,0.0,,0.0,,0.0,
212,Alfenas-Brazil3,-21.4173,-45.942,Alfenas,Brazil,0,,0.0,en,0.0,,0.0,,0.0,,0.0,,0.0,,0.0,,0.0,,1.0,pt,5.0,pt,21.0,pt,52.0,pt,55.0,pt,57.0,pt,73.0,pt,73.0,,73.0,,74.0,pt,75.0,pt,75.0,,75.0,
213,Alfortville-France0,48.8009,2.4223,Alfortville,France,0,,1.0,en,1.0,,1.0,,1.0,,1.0,,1.0,,1.0,,1.0,,1.0,,1.0,,1.0,,1.0,,1.0,,1.0,,1.0,,1.0,,1.0,,1.0,,1.0,,1.0,,1.0,
214,Alfred-United States0,42.2542,-77.7906,Alfred,United States,0,,6.0,en,8.0,en,9.0,en,12.0,en,14.0,en,14.0,,14.0,,14.0,,14.0,,14.0,,14.0,,15.0,en,15.0,,15.0,,15.0,,15.0,,15.0,,15.0,,15.0,,15.0,,15.0,
215,Algeciras-Spain0,36.133,-5.4539,Algeciras,Spain,0,,0.0,en,0.0,,0.0,,0.0,,0.0,,0.0,,1.0,en,1.0,,1.0,,1.0,,1.0,,1.0,,1.0,,1.0,,1.0,,1.0,,1.0,,1.0,,1.0,,1.0,,1.0,
216,Algeciras-Spain1,36.133,-5.4539,Algeciras,Spain,0,,0.0,en,0.0,,0.0,,0.0,,0.0,,0.0,,0.0,,0.0,,0.0,,0.0,,0.0,,0.0,,1.0,es,1.0,,1.0,,1.0,,1.0,,1.0,,1.0,,1.0,,1.0,
217,Algete-Spain3,40.6,-3.5,Algete,Spain,0,,0.0,en,0.0,,0.0,,0.0,,0.0,,0.0,,0.0,,0.0,,0.0,,1.0,pt,1.0,,1.0,,1.0,,1.0,,1.0,,1.0,,1.0,,1.0,,1.0,,1.0,,1.0,
218,Algiers-Algeria0,36.7529,3.042,Algiers,Algeria,0,,1.0,en,1.0,,1.0,,1.0,,1.0,,1.0,,1.0,,1.0,,1.0,,1.0,,1.0,,1.0,,1.0,,1.0,,1.0,,1.0,,1.0,,1.0,,1.0,,1.0,,1.0,
219,Algiers-Algeria2,36.7529,3.042,Algiers,Algeria,0,,0.0,en,0.0,,1.0,fr,1.0,,2.0,fr,2.0,,3.0,fr,4.0,fr,4.0,,4.0,,4.0,,4.0,,4.0,,4.0,,4.0,,4.0,,4.0,,4.0,,4.0,,4.0,,4.0,
220,Algoma-United States0,44.6089,-87.4326,Algoma,United States,0,,0.0,en,1.0,en,1.0,,1.0,,1.0,,1.0,,1.0,,1.0,,1.0,,1.0,,1.0,,1.0,,1.0,,1.0,,1.0,,1.0,,1.0,,1.0,,1.0,,1.0,,1.0,
221,Algona-United States0,43.07,-94.233,Algona,United States,0,,0.0,en,1.0,en,1.0,,1.0,,1.0,,1.0,,1.0,,1.0,,1.0,,1.0,,1.0,,1.0,,1.0,,1.0,,1.0,,1.0,,1.0,,1.0,,1.0,,1.0,,1.0,
222,Algonquin-United States0,42.1656,-88.2942,Algonquin,United States,0,,10.0,en,16.0,en,20.0,en,20.0,,20.0,,20.0,,22.0,en,22.0,,22.0,,22.0,,22.0,,22.0,,22.0,,22.0,,22.0,,22.0,,22.0,,22.0,,22.0,,22.0,,22.0,
223,Alhambra-United States0,34.0953,-118.127,Alhambra,United States,0,,29.0,en,54.0,en,57.0,en,59.0,en,63.0,en,64.0,en,68.0,en,68.0,,70.0,en,70.0,,70.0,,70.0,,71.0,en,71.0,,71.0,,71.0,,71.0,,71.0,,71.0,,71.0,,71.0,
224,Alicante-Spain0,38.346,-0.4907,Alicante,Spain,0,,1.0,en,3.0,en,5.0,en,8.0,en,8.0,,9.0,en,9.0,,10.0,en,10.0,,10.0,,11.0,en,11.0,,11.0,,11.0,,11.0,,11.0,,11.0,,11.0,,11.0,,11.0,,11.0,
225,Alicante-Spain1,38.346,-0.4907,Alicante,Spain,0,,0.0,en,0.0,,0.0,,0.0,,0.0,,0.0,,0.0,,0.0,,0.0,,0.0,,0.0,,2.0,es,9.0,es,13.0,es,13.0,,13.0,,13.0,,13.0,,13.0,,13.0,,13.0,
226,Alicante-Spain3,38.346,-0.4907,Alicante,Spain,0,,0.0,en,0.0,,0.0,,0.0,,0.0,,0.0,,0.0,,0.0,,0.0,,0.0,,0.0,,0.0,,0.0,,0.0,,0.0,,0.0,,0.0,,0.0,,0.0,,0.0,,0.0,
227,Alice Springs-Australia0,-23.7405,133.8482,Alice Springs,Australia,0,,0.0,en,0.0,,0.0,,0.0,,0.0,,0.0,,1.0,en,1.0,,1.0,,1.0,,2.0,en,2.0,,2.0,,2.0,,2.0,,2.0,,2.0,,2.0,,2.0,,2.0,,2.0,
228,Alice-United States0,27.7522,-98.0697,Alice,United States,0,,2.0,en,3.0,en,3.0,,4.0,en,5.0,en,5.0,,6.0,en,6.0,,6.0,,6.0,,6.0,,6.0,,6.0,,6.0,,6.0,,6.0,,6.0,,6.0,,6.0,,6.0,,6.0,
229,Alingsas-Sweden0,57.93,12.5362,Alingsas,Sweden,0,,2.0,en,2.0,,2.0,,2.0,,2.0,,2.0,,2.0,,2.0,,2.0,,2.0,,2.0,,2.0,,2.0,,2.0,,2.0,,2.0,,2.0,,2.0,,2.0,,2.0,,2.0,
230,Aliquippa-United States0,40.6155,-80.2622,Aliquippa,United States,0,,2.0,en,11.0,en,14.0,en,14.0,,16.0,en,16.0,,16.0,,16.0,,16.0,,16.0,,16.0,,16.0,,16.0,,16.0,,16.0,,16.0,,16.0,,16.0,,16.0,,16.0,,16.0,
231,Aliso Viejo-United States0,33.575,-117.7256,Aliso Viejo,United States,0,,9.0,en,22.0,en,25.0,en,25.0,,25.0,,26.0,en,27.0,en,28.0,en,28.0,,28.0,,28.0,,28.0,,28.0,,28.0,,28.0,,28.0,,28.0,,28.0,,28.0,,28.0,,28.0,
232,Allahabad-India0,25.4358,81.8463,Allahabad,India,0,,0.0,en,1.0,en,1.0,,2.0,en,2.0,,2.0,,2.0,,2.0,,2.0,,2.0,,2.0,,2.0,,2.0,,2.0,,2.0,,2.0,,2.0,,2.0,,2.0,,2.0,,2.0,
233,Allamuchy Township-United States0,40.9218,-74.8102,Allamuchy Township,United States,0,,2.0,en,2.0,,2.0,,2.0,,2.0,,2.0,,2.0,,2.0,,2.0,,2.0,,2.0,,2.0,,2.0,,2.0,,2.0,,2.0,,2.0,,2.0,,2.0,,2.0,,2.0,
234,Allegan-United States0,42.5292,-85.8553,Allegan,United States,0,,2.0,en,5.0,en,5.0,,5.0,,5.0,,6.0,en,6.0,,6.0,,6.0,,6.0,,6.0,,6.0,,6.0,,6.0,,6.0,,6.0,,6.0,,6.0,,6.0,,6.0,,6.0,
235,Allegany-United States0,42.0901,-78.4942,Allegany,United States,0,,0.0,en,1.0,en,1.0,,1.0,,1.0,,1.0,,1.0,,1.0,,1.0,,1.0,,1.0,,1.0,,1.0,,1.0,,1.0,,1.0,,1.0,,1.0,,1.0,,1.0,,1.0,
236,Allen Park-United States0,42.2575,-83.211,Allen Park,United States,0,,6.0,en,16.0,en,21.0,en,21.0,,21.0,,21.0,,21.0,,22.0,en,22.0,,22.0,,22.0,,22.0,,22.0,,22.0,,22.0,,22.0,,22.0,,22.0,,23.0,en,23.0,,23.0,
237,Allen Park-United States1,42.2575,-83.211,Allen Park,United States,0,,0.0,en,0.0,,0.0,,0.0,,0.0,,0.0,,0.0,,0.0,,0.0,,0.0,,0.0,,0.0,,2.0,es,2.0,,2.0,,2.0,,2.0,,2.0,,2.0,,2.0,,2.0,
238,Allen Park-United States2,42.2575,-83.211,Allen Park,United States,0,,0.0,en,0.0,,0.0,,0.0,,0.0,,0.0,,0.0,,0.0,,0.0,,0.0,,0.0,,0.0,,0.0,,0.0,,0.0,,0.0,,0.0,,0.0,,0.0,,0.0,,0.0,
239,Allen-United States0,33.1032,-96.6705,Allen,United States,0,,12.0,en,25.0,en,33.0,en,36.0,en,36.0,,36.0,,37.0,en,37.0,,37.0,,37.0,,37.0,,37.0,,37.0,,37.0,,37.0,,37.0,,37.0,,37.0,,37.0,,37.0,,37.0,
240,Allendale Charter Township-United States0,42.9722,-85.9536,Allendale Charter Township,United States,0,,32.0,en,63.0,en,69.0,en,80.0,en,80.0,,86.0,en,86.0,,93.0,en,93.0,,93.0,,94.0,en,94.0,,94.0,,94.0,,94.0,,94.0,,94.0,,94.0,,94.0,,94.0,,94.0,
241,Allendale-United States0,41.0415,-74.129,Allendale,United States,0,,2.0,en,3.0,en,3.0,,3.0,,3.0,,3.0,,3.0,,3.0,,3.0,,3.0,,3.0,,3.0,,3.0,,3.0,,3.0,,3.0,,3.0,,3.0,,3.0,,3.0,,3.0,
242,Allendale-United States3,41.0415,-74.129,Allendale,United States,0,,0.0,en,0.0,,0.0,,0.0,,0.0,,0.0,,0.0,,0.0,,0.0,,0.0,,1.0,pt,1.0,,1.0,,1.0,,1.0,,1.0,,1.0,,1.0,,1.0,,1.0,,1.0,
243,Allentown-United States0,40.6084,-75.4902,Allentown,United States,0,,45.0,en,75.0,en,88.0,en,108.0,en,109.0,en,111.0,en,116.0,en,116.0,,121.0,en,122.0,en,127.0,en,127.0,,127.0,,127.0,,127.0,,127.0,,127.0,,128.0,en,128.0,,128.0,,128.0,
244,Allentown-United States1,40.6084,-75.4902,Allentown,United States,0,,0.0,en,0.0,,0.0,,0.0,,0.0,,0.0,,0.0,,0.0,,0.0,,0.0,,0.0,,0.0,,0.0,,0.0,,0.0,,0.0,,0.0,,0.0,,0.0,,0.0,,0.0,
245,Allentown-United States2,40.6084,-75.4902,Allentown,United States,0,,0.0,en,0.0,,0.0,,0.0,,0.0,,0.0,,0.0,,0.0,,0.0,,0.0,,0.0,,0.0,,0.0,,0.0,,0.0,,0.0,,0.0,,0.0,,0.0,,0.0,,0.0,
246,Alliance-United States0,40.9153,-81.1059,Alliance,United States,0,,16.0,en,23.0,en,26.0,en,28.0,en,29.0,en,29.0,,29.0,,30.0,en,31.0,en,31.0,,31.0,,31.0,,31.0,,31.0,,31.0,,31.0,,31.0,,31.0,,31.0,,31.0,,31.0,
247,Alloa-United Kingdom0,56.1141,-3.7919,Alloa,United Kingdom,0,,1.0,en,2.0,en,2.0,,2.0,,2.0,,2.0,,2.0,,2.0,,2.0,,2.0,,2.0,,2.0,,2.0,,2.0,,2.0,,2.0,,2.0,,2.0,,2.0,,2.0,,2.0,
248,Allouez-United States0,44.4775,-88.0162,Allouez,United States,0,,2.0,en,2.0,,2.0,,2.0,,2.0,,3.0,en,3.0,,3.0,,3.0,,3.0,,3.0,,3.0,,3.0,,3.0,,3.0,,3.0,,3.0,,3.0,,3.0,,3.0,,3.0,
249,Allschwil-Switzerland0,47.5505,7.5356,Allschwil,Switzerland,0,,0.0,en,0.0,,0.0,,0.0,,0.0,,0.0,,0.0,,0.0,,1.0,en,1.0,,1.0,,1.0,,1.0,,1.0,,1.0,,1.0,,1.0,,1.0,,1.0,,1.0,,1.0,
250,Alma-Canada0,48.5505,-71.6528,Alma,Canada,0,,0.0,en,0.0,,1.0,en,1.0,,5.0,en,5.0,,5.0,,5.0,,5.0,,5.0,,5.0,,5.0,,5.0,,5.0,,5.0,,5.0,,5.0,,5.0,,5.0,,5.0,,5.0,
251,Alma-Canada2,48.5505,-71.6528,Alma,Canada,0,,0.0,en,0.0,,0.0,,0.0,,0.0,,0.0,,0.0,,0.0,,0.0,,0.0,,0.0,,0.0,,0.0,,0.0,,0.0,,0.0,,0.0,,0.0,,0.0,,0.0,,0.0,
252,Alma-United States0,43.3789,-84.6597,Alma,United States,0,,4.0,en,15.0,en,15.0,,18.0,en,18.0,,18.0,,18.0,,18.0,,18.0,,18.0,,18.0,,18.0,,18.0,,18.0,,18.0,,18.0,,18.0,,18.0,,18.0,,18.0,,18.0,
253,Alma-United States2,43.3789,-84.6597,Alma,United States,0,,0.0,en,0.0,,0.0,,0.0,,0.0,,0.0,,0.0,,0.0,,0.0,,0.0,,0.0,,0.0,,0.0,,0.0,,0.0,,0.0,,0.0,,0.0,,0.0,,0.0,,0.0,
254,Almada-Portugal0,38.6793,-9.1616,Almada,Portugal,0,,1.0,en,2.0,en,3.0,en,3.0,,3.0,,3.0,,3.0,,3.0,,3.0,,3.0,,3.0,,3.0,,3.0,,3.0,,3.0,,3.0,,3.0,,3.0,,3.0,,3.0,,3.0,
255,Almada-Portugal3,38.6793,-9.1616,Almada,Portugal,0,,0.0,en,0.0,,0.0,,0.0,,0.0,,0.0,,0.0,,0.0,,2.0,pt,2.0,,11.0,pt,46.0,pt,75.0,pt,94.0,pt,95.0,pt,96.0,pt,97.0,pt,106.0,pt,106.0,,107.0,pt,107.0,
256,Almere-Netherlands0,52.3714,5.2221,Almere,Netherlands,0,,0.0,en,1.0,en,1.0,,2.0,en,2.0,,2.0,,2.0,,2.0,,2.0,,2.0,,2.0,,2.0,,2.0,,2.0,,2.0,,2.0,,2.0,,2.0,,2.0,,2.0,,2.0,
257,Almeria-Spain0,36.834,-2.4637,Almeria,Spain,0,,1.0,en,2.0,en,2.0,,2.0,,2.0,,2.0,,2.0,,2.0,,2.0,,2.0,,2.0,,2.0,,2.0,,2.0,,2.0,,2.0,,2.0,,2.0,,2.0,,2.0,,2.0,
258,Almeria-Spain1,36.834,-2.4637,Almeria,Spain,0,,0.0,en,0.0,,0.0,,0.0,,0.0,,0.0,,0.0,,0.0,,0.0,,0.0,,0.0,,0.0,,13.0,es,21.0,es,21.0,,21.0,,21.0,,21.0,,21.0,,21.0,,21.0,
259,Almeria-Spain3,36.834,-2.4637,Almeria,Spain,0,,0.0,en,0.0,,0.0,,0.0,,0.0,,0.0,,0.0,,0.0,,0.0,,0.0,,0.0,,0.0,,0.0,,0.0,,0.0,,0.0,,0.0,,1.0,pt,1.0,,1.0,,1.0,
260,Aloha-United States0,45.4943,-122.8671,Aloha,United States,0,,3.0,en,7.0,en,8.0,en,9.0,en,10.0,en,13.0,en,13.0,,13.0,,13.0,,13.0,,13.0,,13.0,,13.0,,13.0,,13.0,,13.0,,13.0,,13.0,,13.0,,13.0,,13.0,
261,Alor Star-Malaysia0,6.1194,100.3677,Alor Star,Malaysia,0,,0.0,en,1.0,en,2.0,en,2.0,,2.0,,3.0,en,3.0,,3.0,,3.0,,3.0,,3.0,,3.0,,3.0,,3.0,,3.0,,3.0,,3.0,,3.0,,3.0,,3.0,,3.0,
262,Alpen-Germany0,51.5756,6.512,Alpen,Germany,0,,0.0,en,1.0,en,1.0,,1.0,,1.0,,1.0,,1.0,,1.0,,1.0,,1.0,,1.0,,1.0,,1.0,,1.0,,1.0,,1.0,,1.0,,1.0,,1.0,,1.0,,1.0,
263,Alpena-United States0,45.0617,-83.4328,Alpena,United States,0,,1.0,en,1.0,,2.0,en,2.0,,2.0,,3.0,en,3.0,,3.0,,3.0,,3.0,,3.0,,3.0,,3.0,,3.0,,3.0,,3.0,,3.0,,3.0,,3.0,,3.0,,3.0,
264,Alpharetta-United States0,34.0754,-84.2941,Alpharetta,United States,0,,41.0,en,51.0,en,53.0,en,57.0,en,59.0,en,59.0,,61.0,en,61.0,,61.0,,61.0,,61.0,,61.0,,62.0,en,62.0,,62.0,,63.0,en,64.0,en,64.0,,64.0,,64.0,,64.0,
265,Alpharetta-United States1,34.0754,-84.2941,Alpharetta,United States,0,,0.0,en,0.0,,0.0,,0.0,,0.0,,0.0,,0.0,,0.0,,0.0,,0.0,,0.0,,0.0,,0.0,,0.0,,0.0,,0.0,,0.0,,0.0,,0.0,,0.0,,0.0,
266,Alpharetta-United States2,34.0754,-84.2941,Alpharetta,United States,0,,0.0,en,0.0,,0.0,,0.0,,0.0,,0.0,,0.0,,0.0,,0.0,,0.0,,0.0,,0.0,,0.0,,0.0,,0.0,,0.0,,0.0,,0.0,,0.0,,0.0,,0.0,
267,Alpharetta-United States3,34.0754,-84.2941,Alpharetta,United States,0,,0.0,en,0.0,,0.0,,0.0,,0.0,,0.0,,0.0,,0.0,,0.0,,0.0,,0.0,,1.0,pt,1.0,,1.0,,1.0,,1.0,,1.0,,1.0,,1.0,,1.0,,1.0,
268,Alphen aan den Rijn-Netherlands0,52.1277,4.6689,Alphen aan den Rijn,Netherlands,0,,0.0,en,1.0,en,1.0,,1.0,,1.0,,1.0,,1.0,,1.0,,1.0,,1.0,,1.0,,1.0,,1.0,,1.0,,1.0,,1.0,,1.0,,1.0,,1.0,,1.0,,1.0,
269,Alpine-United States0,32.8351,-116.7664,Alpine,United States,0,,4.0,en,8.0,en,8.0,,9.0,en,9.0,,9.0,,9.0,,9.0,,9.0,,9.0,,9.0,,9.0,,9.0,,9.0,,9.0,,9.0,,9.0,,9.0,,9.0,,9.0,,9.0,
270,Alsip-United States0,41.6689,-87.7387,Alsip,United States,0,,3.0,en,5.0,en,5.0,,5.0,,5.0,,5.0,,5.0,,5.0,,5.0,,5.0,,5.0,,5.0,,5.0,,5.0,,5.0,,5.0,,5.0,,5.0,,5.0,,5.0,,5.0,
271,Alta-Norway0,69.955,23.3279,Alta,Norway,0,,1.0,en,2.0,en,2.0,,2.0,,2.0,,2.0,,2.0,,2.0,,2.0,,2.0,,2.0,,2.0,,2.0,,2.0,,2.0,,2.0,,2.0,,2.0,,2.0,,2.0,,2.0,
272,Altadena-United States0,34.1897,-118.1312,Altadena,United States,0,,4.0,en,19.0,en,20.0,en,25.0,en,26.0,en,28.0,en,31.0,en,32.0,en,32.0,,33.0,en,33.0,,33.0,,34.0,en,34.0,,34.0,,34.0,,34.0,,34.0,,34.0,,34.0,,34.0,
273,Altadena-United States2,34.1897,-118.1312,Altadena,United States,0,,0.0,en,0.0,,0.0,,0.0,,0.0,,0.0,,0.0,,0.0,,0.0,,0.0,,0.0,,0.0,,0.0,,0.0,,0.0,,0.0,,0.0,,0.0,,0.0,,0.0,,0.0,
274,Altamont-United States0,42.7006,-74.0337,Altamont,United States,0,,0.0,en,0.0,,4.0,en,4.0,,4.0,,4.0,,4.0,,4.0,,4.0,,4.0,,4.0,,4.0,,4.0,,4.0,,4.0,,4.0,,4.0,,4.0,,4.0,,4.0,,4.0,
275,Altamonte Springs-United States0,28.6611,-81.3656,Altamonte Springs,United States,0,,20.0,en,30.0,en,37.0,en,38.0,en,40.0,en,40.0,,41.0,en,42.0,en,42.0,,43.0,en,43.0,,43.0,,44.0,en,44.0,,44.0,,44.0,,44.0,,44.0,,44.0,,44.0,,44.0,
276,Altavista-United States0,37.1118,-79.2856,Altavista,United States,0,,0.0,en,0.0,,0.0,,0.0,,0.0,,0.0,,2.0,en,2.0,,2.0,,2.0,,2.0,,2.0,,2.0,,2.0,,2.0,,2.0,,2.0,,2.0,,2.0,,2.0,,2.0,
277,Altena-Germany0,51.3026,7.7029,Altena,Germany,0,,0.0,en,1.0,en,1.0,,1.0,,1.0,,1.0,,1.0,,1.0,,1.0,,1.0,,1.0,,1.0,,1.0,,1.0,,1.0,,1.0,,1.0,,1.0,,1.0,,1.0,,1.0,
278,Alton-United Kingdom0,51.1507,-0.9732,Alton,United Kingdom,0,,0.0,en,0.0,,0.0,,0.0,,0.0,,0.0,,1.0,en,1.0,,1.0,,1.0,,1.0,,1.0,,1.0,,2.0,en,2.0,,2.0,,2.0,,2.0,,2.0,,2.0,,2.0,
279,Alton-United States0,38.8906,-90.1843,Alton,United States,0,,8.0,en,13.0,en,17.0,en,17.0,,17.0,,17.0,,17.0,,17.0,,17.0,,17.0,,17.0,,17.0,,17.0,,17.0,,17.0,,17.0,,17.0,,17.0,,17.0,,17.0,,17.0,
280,Altoona-United States0,40.5187,-78.3947,Altoona,United States,0,,19.0,en,38.0,en,47.0,en,54.0,en,57.0,en,59.0,en,60.0,en,61.0,en,64.0,en,64.0,,64.0,,64.0,,64.0,,64.0,,65.0,en,65.0,,65.0,,65.0,,65.0,,65.0,,65.0,
281,Altoona-United States1,41.65,-93.4725,Altoona,United States,0,,0.0,en,0.0,,0.0,,0.0,,0.0,,0.0,,0.0,,0.0,,0.0,,0.0,,0.0,,0.0,,0.0,,0.0,,0.0,,0.0,,0.0,,0.0,,0.0,,0.0,,0.0,
282,Altoona-United States2,41.65,-93.4725,Altoona,United States,0,,0.0,en,0.0,,0.0,,0.0,,0.0,,0.0,,0.0,,0.0,,0.0,,0.0,,0.0,,0.0,,0.0,,0.0,,0.0,,0.0,,0.0,,0.0,,0.0,,0.0,,0.0,
283,Altrincham-United Kingdom0,53.3902,-2.3509,Altrincham,United Kingdom,0,,1.0,en,4.0,en,4.0,,4.0,,4.0,,4.0,,4.0,,4.0,,4.0,,5.0,en,5.0,,5.0,,5.0,,5.0,,5.0,,6.0,en,6.0,,6.0,,6.0,,6.0,,6.0,
284,Altrincham-United Kingdom1,53.3902,-2.3509,Altrincham,United Kingdom,0,,0.0,en,0.0,,0.0,,0.0,,0.0,,0.0,,0.0,,0.0,,0.0,,0.0,,0.0,,0.0,,0.0,,0.0,,0.0,,0.0,,0.0,,0.0,,0.0,,0.0,,0.0,
285,Altrincham-United Kingdom2,53.3902,-2.3509,Altrincham,United Kingdom,0,,0.0,en,0.0,,0.0,,0.0,,0.0,,0.0,,0.0,,0.0,,0.0,,0.0,,0.0,,0.0,,0.0,,0.0,,0.0,,0.0,,0.0,,0.0,,0.0,,0.0,,0.0,
286,Altus-United States0,34.6378,-99.334,Altus,United States,0,,3.0,en,5.0,en,6.0,en,7.0,en,7.0,,7.0,,7.0,,7.0,,7.0,,7.0,,7.0,,7.0,,7.0,,7.0,,7.0,,7.0,,7.0,,7.0,,7.0,,7.0,,7.0,
287,Alva-United States0,36.805,-98.6665,Alva,United States,0,,0.0,en,0.0,,0.0,,0.0,,1.0,en,1.0,,1.0,,1.0,,1.0,,1.0,,1.0,,1.0,,1.0,,1.0,,1.0,,1.0,,1.0,,1.0,,1.0,,1.0,,1.0,
288,Alverca do Ribatejo-Portugal0,38.8979,-9.038,Alverca do Ribatejo,Portugal,0,,1.0,en,1.0,,2.0,en,2.0,,2.0,,2.0,,2.0,,2.0,,2.0,,2.0,,2.0,,2.0,,2.0,,2.0,,2.0,,2.0,,2.0,,2.0,,2.0,,2.0,,2.0,
289,Alverca do Ribatejo-Portugal3,38.8979,-9.038,Alverca do Ribatejo,Portugal,0,,0.0,en,0.0,,0.0,,0.0,,0.0,,0.0,,0.0,,0.0,,1.0,pt,1.0,,7.0,pt,11.0,pt,11.0,,13.0,pt,14.0,pt,15.0,pt,16.0,pt,17.0,pt,19.0,pt,20.0,pt,21.0,pt
290,Alvin-United States0,29.4238,-95.2441,Alvin,United States,0,,0.0,en,1.0,en,3.0,en,5.0,en,5.0,,5.0,,5.0,,5.0,,5.0,,5.0,,5.0,,5.0,,5.0,,5.0,,5.0,,5.0,,5.0,,5.0,,5.0,,5.0,,5.0,
291,Alvorada-Brazil3,-29.9863,-51.0436,Alvorada,Brazil,0,,0.0,en,0.0,,0.0,,0.0,,0.0,,0.0,,0.0,,0.0,,0.0,,2.0,pt,15.0,pt,16.0,pt,16.0,,16.0,,17.0,pt,17.0,,19.0,pt,19.0,,19.0,,19.0,,19.0,
292,Alytus-Lithuania0,54.3963,24.0459,Alytus,Lithuania,0,,1.0,en,2.0,en,2.0,,2.0,,2.0,,2.0,,2.0,,2.0,,2.0,,2.0,,2.0,,2.0,,2.0,,2.0,,2.0,,2.0,,2.0,,2.0,,2.0,,2.0,,2.0,
293,Alzenau-Germany0,50.0894,9.0587,Alzenau,Germany,0,,0.0,en,0.0,,0.0,,1.0,en,1.0,,1.0,,1.0,,1.0,,1.0,,1.0,,1.0,,1.0,,1.0,,1.0,,1.0,,1.0,,1.0,,1.0,,1.0,,1.0,,1.0,
294,Amadora-Portugal0,38.7578,-9.2245,Amadora,Portugal,0,,1.0,en,3.0,en,3.0,,4.0,en,4.0,,4.0,,4.0,,4.0,,4.0,,4.0,,4.0,,4.0,,4.0,,4.0,,4.0,,4.0,,4.0,,4.0,,4.0,,4.0,,4.0,
295,Amadora-Portugal3,38.7578,-9.2245,Amadora,Portugal,0,,0.0,en,0.0,,0.0,,0.0,,0.0,,0.0,,0.0,,0.0,,0.0,,0.0,,13.0,pt,51.0,pt,70.0,pt,79.0,pt,83.0,pt,86.0,pt,88.0,pt,95.0,pt,102.0,pt,106.0,pt,107.0,pt
296,Amana-United States0,41.8025,-91.8742,Amana,United States,0,,1.0,en,1.0,,1.0,,1.0,,1.0,,1.0,,1.0,,1.0,,1.0,,1.0,,1.0,,1.0,,1.0,,1.0,,1.0,,1.0,,1.0,,1.0,,1.0,,1.0,,1.0,
297,Amarillo-United States0,35.222,-101.8313,Amarillo,United States,0,,32.0,en,45.0,en,49.0,en,51.0,en,51.0,,54.0,en,54.0,,54.0,,54.0,,54.0,,54.0,,54.0,,54.0,,54.0,,54.0,,54.0,,54.0,,55.0,en,55.0,,55.0,,55.0,
298,Amarillo-United States1,35.222,-101.8313,Amarillo,United States,0,,0.0,en,0.0,,0.0,,0.0,,0.0,,0.0,,0.0,,0.0,,0.0,,0.0,,0.0,,0.0,,0.0,,0.0,,0.0,,0.0,,0.0,,0.0,,0.0,,0.0,,0.0,
299,Amarillo-United States2,35.222,-101.8313,Amarillo,United States,0,,0.0,en,0.0,,0.0,,0.0,,0.0,,0.0,,0.0,,0.0,,0.0,,0.0,,0.0,,0.0,,0.0,,0.0,,0.0,,0.0,,0.0,,0.0,,0.0,,0.0,,0.0,
300,Ambala Cantt-India0,30.361,76.8485,Ambala Cantt,India,0,,0.0,en,0.0,,2.0,en,2.0,,2.0,,2.0,,2.0,,2.0,,2.0,,2.0,,2.0,,2.0,,2.0,,2.0,,2.0,,2.0,,2.0,,2.0,,2.0,,2.0,,2.0,
301,Ambares-et-Lagrave-France2,44.9265,-0.4904,AmbaresetLagrave,France,0,,0.0,en,0.0,,0.0,,1.0,fr,1.0,,1.0,,1.0,,1.0,,1.0,,1.0,,1.0,,1.0,,1.0,,1.0,,1.0,,1.0,,1.0,,1.0,,1.0,,1.0,,1.0,
302,Ambato-Ecuador0,-1.2417,-78.6197,Ambato,Ecuador,0,,2.0,en,3.0,en,3.0,,3.0,,3.0,,3.0,,3.0,,3.0,,3.0,,3.0,,3.0,,3.0,,3.0,,3.0,,3.0,,3.0,,3.0,,3.0,,3.0,,3.0,,3.0,
303,Ambernath-India0,19.1955,73.194,Ambernath,India,0,,0.0,en,0.0,,0.0,,0.0,,1.0,en,1.0,,1.0,,1.0,,1.0,,1.0,,1.0,,1.0,,1.0,,1.0,,1.0,,1.0,,1.0,,1.0,,1.0,,1.0,,2.0,en
304,Ambernath-India1,19.1955,73.194,Ambernath,India,0,,0.0,en,0.0,,0.0,,0.0,,0.0,,0.0,,0.0,,0.0,,0.0,,0.0,,0.0,,0.0,,0.0,,0.0,,0.0,,0.0,,0.0,,0.0,,0.0,,0.0,,0.0,
305,Ambernath-India2,19.1955,73.194,Ambernath,India,0,,0.0,en,0.0,,0.0,,0.0,,0.0,,0.0,,0.0,,0.0,,0.0,,0.0,,0.0,,0.0,,0.0,,0.0,,0.0,,0.0,,0.0,,0.0,,0.0,,0.0,,0.0,
306,Ambler-United States0,40.1546,-75.2216,Ambler,United States,0,,4.0,en,5.0,en,5.0,,5.0,,6.0,en,6.0,,6.0,,6.0,,6.0,,6.0,,8.0,en,8.0,,8.0,,8.0,,8.0,,8.0,,8.0,,8.0,,8.0,,8.0,,8.0,
307,Amelia-United States0,39.0284,-84.2177,Amelia,United States,0,,2.0,en,7.0,en,7.0,,8.0,en,8.0,,8.0,,8.0,,8.0,,8.0,,8.0,,8.0,,8.0,,8.0,,8.0,,8.0,,8.0,,8.0,,8.0,,9.0,en,9.0,,9.0,
308,Amelia-United States1,39.0284,-84.2177,Amelia,United States,0,,0.0,en,0.0,,0.0,,0.0,,0.0,,0.0,,0.0,,0.0,,0.0,,0.0,,0.0,,0.0,,0.0,,0.0,,0.0,,0.0,,0.0,,0.0,,0.0,,0.0,,0.0,
309,Amelia-United States2,39.0284,-84.2177,Amelia,United States,0,,0.0,en,0.0,,0.0,,0.0,,0.0,,0.0,,0.0,,0.0,,0.0,,0.0,,0.0,,0.0,,0.0,,0.0,,0.0,,0.0,,0.0,,0.0,,0.0,,0.0,,0.0,
310,American Canyon-United States0,38.1749,-122.2608,American Canyon,United States,0,,1.0,en,1.0,,1.0,,1.0,,1.0,,1.0,,1.0,,1.0,,1.0,,1.0,,1.0,,1.0,,1.0,,1.0,,1.0,,1.0,,1.0,,1.0,,1.0,,1.0,,1.0,
311,American Fork-United States0,40.3769,-111.7958,American Fork,United States,0,,3.0,en,4.0,en,5.0,en,5.0,,6.0,en,6.0,,7.0,en,7.0,,7.0,,7.0,,7.0,,7.0,,7.0,,7.0,,7.0,,7.0,,7.0,,7.0,,7.0,,7.0,,7.0,
312,Americana-Brazil0,-22.7244,-47.2826,Americana,Brazil,0,,0.0,en,1.0,en,1.0,,2.0,en,2.0,,2.0,,2.0,,2.0,,2.0,,5.0,en,5.0,,5.0,,5.0,,5.0,,5.0,,5.0,,5.0,,5.0,,5.0,,5.0,,5.0,
313,Americana-Brazil3,-22.7244,-47.2826,Americana,Brazil,0,,0.0,en,0.0,,0.0,,0.0,,0.0,,0.0,,0.0,,0.0,,2.0,pt,2.0,,78.0,pt,150.0,pt,184.0,pt,202.0,pt,228.0,pt,246.0,pt,251.0,pt,267.0,pt,272.0,pt,273.0,pt,273.0,
314,Americo Brasiliense-Brazil3,-21.7301,-48.0605,Americo Brasiliense,Brazil,0,,0.0,en,0.0,,0.0,,0.0,,0.0,,0.0,,0.0,,0.0,,0.0,,0.0,,1.0,pt,1.0,,1.0,,1.0,,2.0,pt,2.0,,2.0,,3.0,pt,3.0,,3.0,,3.0,
315,Americus-United States0,32.0724,-84.2327,Americus,United States,0,,0.0,en,1.0,en,2.0,en,2.0,,2.0,,2.0,,2.0,,2.0,,2.0,,2.0,,2.0,,2.0,,2.0,,2.0,,2.0,,2.0,,2.0,,2.0,,2.0,,2.0,,2.0,
316,Amersfoort-Netherlands0,52.1561,5.3878,Amersfoort,Netherlands,0,,1.0,en,2.0,en,2.0,,4.0,en,4.0,,4.0,,4.0,,4.0,,4.0,,4.0,,4.0,,4.0,,4.0,,4.0,,4.0,,4.0,,4.0,,4.0,,4.0,,4.0,,4.0,
317,Amery-United States0,45.3069,-92.3621,Amery,United States,0,,1.0,en,1.0,,2.0,en,2.0,,2.0,,2.0,,2.0,,3.0,en,3.0,,3.0,,3.0,,3.0,,3.0,,3.0,,3.0,,3.0,,3.0,,3.0,,3.0,,3.0,,3.0,
318,Ames-United States0,42.0233,-93.6256,Ames,United States,0,,81.0,en,138.0,en,167.0,en,192.0,en,197.0,en,198.0,en,205.0,en,206.0,en,209.0,en,210.0,en,210.0,,210.0,,210.0,,210.0,,210.0,,211.0,en,211.0,,211.0,,211.0,,211.0,,211.0,
319,Ames-United States1,42.0233,-93.6256,Ames,United States,0,,0.0,en,0.0,,0.0,,0.0,,0.0,,0.0,,0.0,,0.0,,0.0,,0.0,,0.0,,0.0,,0.0,,0.0,,0.0,,0.0,,0.0,,0.0,,0.0,,0.0,,0.0,
320,Ames-United States2,42.0233,-93.6256,Ames,United States,0,,0.0,en,0.0,,0.0,,0.0,,0.0,,0.0,,0.0,,0.0,,0.0,,0.0,,0.0,,0.0,,0.0,,0.0,,0.0,,0.0,,0.0,,0.0,,0.0,,0.0,,0.0,
321,Amesbury-United States0,42.8584,-70.93,Amesbury,United States,0,,3.0,en,7.0,en,9.0,en,9.0,,10.0,en,10.0,,11.0,en,11.0,,11.0,,11.0,,11.0,,11.0,,11.0,,11.0,,11.0,,11.0,,11.0,,11.0,,11.0,,11.0,,11.0,
322,Amherst-Canada0,45.8167,-64.2167,Amherst,Canada,0,,0.0,en,0.0,,0.0,,0.0,,0.0,,0.0,,0.0,,0.0,,0.0,,0.0,,0.0,,0.0,,0.0,,0.0,,0.0,,0.0,,0.0,,0.0,,0.0,,0.0,,0.0,
323,Amherst-United States0,42.3667,-72.5167,Amherst,United States,0,,113.0,en,182.0,en,217.0,en,235.0,en,242.0,en,243.0,en,248.0,en,249.0,en,253.0,en,256.0,en,260.0,en,260.0,,260.0,,261.0,en,261.0,,262.0,en,264.0,en,265.0,en,265.0,,265.0,,265.0,
324,Amherst-United States1,42.3667,-72.5167,Amherst,United States,0,,0.0,en,0.0,,0.0,,0.0,,0.0,,0.0,,0.0,,0.0,,0.0,,0.0,,0.0,,0.0,,0.0,,0.0,,0.0,,0.0,,0.0,,0.0,,0.0,,0.0,,0.0,
325,Amherst-United States2,42.3667,-72.5167,Amherst,United States,0,,0.0,en,0.0,,0.0,,0.0,,0.0,,0.0,,0.0,,0.0,,0.0,,0.0,,0.0,,0.0,,0.0,,0.0,,0.0,,0.0,,0.0,,0.0,,0.0,,0.0,,0.0,
326,Amherst-United States3,42.3667,-72.5167,Amherst,United States,0,,0.0,en,0.0,,0.0,,0.0,,0.0,,0.0,,0.0,,0.0,,0.0,,0.0,,0.0,,0.0,,0.0,,0.0,,0.0,,0.0,,0.0,,0.0,,0.0,,0.0,,0.0,
327,Amherstburg-Canada0,42.1014,-83.1087,Amherstburg,Canada,0,,0.0,en,1.0,en,1.0,,1.0,,1.0,,1.0,,1.0,,1.0,,1.0,,1.0,,1.0,,1.0,,1.0,,1.0,,1.0,,1.0,,1.0,,1.0,,1.0,,1.0,,1.0,
328,Amiens-France0,49.8941,2.2958,Amiens,France,0,,1.0,en,2.0,en,2.0,,3.0,en,3.0,,3.0,,3.0,,3.0,,3.0,,3.0,,3.0,,3.0,,3.0,,3.0,,3.0,,3.0,,3.0,,3.0,,3.0,,3.0,,3.0,
329,Amiens-France2,49.8941,2.2958,Amiens,France,0,,0.0,en,0.0,,21.0,fr,21.0,,23.0,fr,29.0,fr,29.0,,29.0,,29.0,,29.0,,30.0,fr,30.0,,30.0,,30.0,,30.0,,30.0,,30.0,,30.0,,30.0,,30.0,,30.0,
330,Amity Gardens-United States0,40.2743,-75.7352,Amity Gardens,United States,0,,2.0,en,6.0,en,7.0,en,7.0,,7.0,,7.0,,7.0,,8.0,en,9.0,en,9.0,,9.0,,9.0,,9.0,,9.0,,9.0,,9.0,,9.0,,9.0,,9.0,,9.0,,9.0,
331,Amory-United States0,33.9843,-88.4881,Amory,United States,0,,0.0,en,0.0,,0.0,,0.0,,0.0,,0.0,,1.0,en,1.0,,1.0,,1.0,,1.0,,1.0,,1.0,,1.0,,1.0,,1.0,,1.0,,1.0,,1.0,,1.0,,1.0,
332,Amos-Canada2,48.565,-78.1125,Amos,Canada,0,,0.0,en,0.0,,1.0,fr,2.0,fr,2.0,,2.0,,2.0,,2.0,,2.0,,2.0,,2.0,,2.0,,3.0,fr,3.0,,3.0,,3.0,,3.0,,3.0,,3.0,,3.0,,3.0,
333,Ampang-Malaysia0,3.1588,101.7574,Ampang,Malaysia,0,,1.0,en,1.0,,1.0,,1.0,,1.0,,1.0,,1.0,,1.0,,1.0,,1.0,,1.0,,1.0,,1.0,,1.0,,1.0,,1.0,,1.0,,1.0,,1.0,,1.0,,1.0,
334,Amparo-Brazil3,-22.7607,-46.7865,Amparo,Brazil,0,,0.0,en,0.0,,0.0,,0.0,,0.0,,0.0,,0.0,,0.0,,0.0,,0.0,,1.0,pt,6.0,pt,6.0,,6.0,,9.0,pt,11.0,pt,13.0,pt,13.0,,13.0,,14.0,pt,14.0,
335,Ampere-Brazil3,-25.9119,-53.4987,Ampere,Brazil,0,,0.0,en,0.0,,0.0,,0.0,,0.0,,0.0,,0.0,,0.0,,0.0,,3.0,pt,10.0,pt,11.0,pt,13.0,pt,13.0,,14.0,pt,14.0,,14.0,,14.0,,14.0,,14.0,,14.0,
336,Amqui-Canada0,48.4646,-67.4312,Amqui,Canada,0,,0.0,en,1.0,en,1.0,,1.0,,1.0,,1.0,,1.0,,1.0,,1.0,,1.0,,1.0,,1.0,,1.0,,1.0,,1.0,,1.0,,1.0,,1.0,,1.0,,1.0,,1.0,
337,Amriswil-Switzerland3,47.5466,9.2957,Amriswil,Switzerland,0,,0.0,en,0.0,,0.0,,0.0,,0.0,,0.0,,0.0,,0.0,,0.0,,0.0,,1.0,pt,1.0,,1.0,,1.0,,1.0,,1.0,,1.0,,1.0,,1.0,,1.0,,1.0,
338,Amritsar-India0,31.634,74.8723,Amritsar,India,0,,0.0,en,0.0,,1.0,en,4.0,en,6.0,en,6.0,,6.0,,6.0,,6.0,,6.0,,6.0,,6.0,,6.0,,6.0,,6.0,,6.0,,6.0,,6.0,,6.0,,7.0,en,7.0,
339,Amritsar-India1,31.634,74.8723,Amritsar,India,0,,0.0,en,0.0,,0.0,,0.0,,0.0,,0.0,,0.0,,0.0,,0.0,,0.0,,0.0,,0.0,,0.0,,0.0,,0.0,,0.0,,0.0,,0.0,,0.0,,0.0,,0.0,
340,Amritsar-India2,31.634,74.8723,Amritsar,India,0,,0.0,en,0.0,,0.0,,0.0,,0.0,,0.0,,0.0,,0.0,,0.0,,0.0,,0.0,,0.0,,0.0,,0.0,,0.0,,0.0,,0.0,,0.0,,0.0,,0.0,,0.0,
341,Amstelveen-Netherlands0,52.3114,4.8701,Amstelveen,Netherlands,0,,2.0,en,11.0,en,15.0,en,17.0,en,20.0,en,21.0,en,21.0,,21.0,,21.0,,22.0,en,22.0,,22.0,,22.0,,23.0,en,23.0,,23.0,,23.0,,23.0,,23.0,,23.0,,23.0,
342,Amstelveen-Netherlands3,52.3114,4.8701,Amstelveen,Netherlands,0,,0.0,en,0.0,,0.0,,0.0,,0.0,,0.0,,0.0,,0.0,,0.0,,0.0,,1.0,pt,1.0,,1.0,,1.0,,1.0,,1.0,,1.0,,1.0,,1.0,,1.0,,1.0,
343,Amsterdam Airport Schiphol-Netherlands0,52.2875,4.753,Amsterdam Airport Schiphol,Netherlands,0,,0.0,en,1.0,en,1.0,,1.0,,1.0,,1.0,,1.0,,1.0,,1.0,,1.0,,1.0,,1.0,,1.0,,1.0,,1.0,,1.0,,1.0,,1.0,,1.0,,1.0,,1.0,
344,Amsterdam Airport Schiphol-Netherlands3,52.2875,4.753,Amsterdam Airport Schiphol,Netherlands,0,,0.0,en,0.0,,0.0,,0.0,,0.0,,0.0,,0.0,,0.0,,0.0,,1.0,pt,1.0,,1.0,,1.0,,1.0,,1.0,,1.0,,1.0,,1.0,,1.0,,1.0,,1.0,
345,Amsterdam-Netherlands0,52.3702,4.8952,Amsterdam,Netherlands,0,,31.0,en,75.0,en,95.0,en,107.0,en,115.0,en,120.0,en,122.0,en,124.0,en,124.0,,124.0,,124.0,,124.0,,125.0,en,129.0,en,129.0,,130.0,en,130.0,,130.0,,130.0,,130.0,,130.0,
346,Amsterdam-Netherlands1,52.3702,4.8952,Amsterdam,Netherlands,0,,0.0,en,0.0,,0.0,,0.0,,0.0,,0.0,,0.0,,0.0,,0.0,,0.0,,0.0,,0.0,,0.0,,0.0,,0.0,,0.0,,0.0,,0.0,,0.0,,0.0,,0.0,
347,Amsterdam-Netherlands2,52.3702,4.8952,Amsterdam,Netherlands,0,,0.0,en,0.0,,0.0,,0.0,,0.0,,0.0,,0.0,,0.0,,0.0,,0.0,,0.0,,0.0,,0.0,,0.0,,0.0,,0.0,,0.0,,0.0,,0.0,,0.0,,0.0,
348,Amsterdam-Netherlands3,52.3702,4.8952,Amsterdam,Netherlands,0,,0.0,en,0.0,,0.0,,0.0,,0.0,,0.0,,0.0,,0.0,,0.0,,1.0,pt,8.0,pt,14.0,pt,14.0,,14.0,,14.0,,14.0,,15.0,pt,15.0,,15.0,,15.0,,15.0,
349,Amsterdam-United States0,42.9387,-74.1882,Amsterdam,United States,0,,0.0,en,0.0,,0.0,,0.0,,0.0,,0.0,,0.0,,0.0,,0.0,,0.0,,0.0,,0.0,,0.0,,0.0,,0.0,,0.0,,0.0,,0.0,,0.0,,0.0,,5.0,en
350,Amsterdam-United States1,42.9387,-74.1882,Amsterdam,United States,0,,0.0,en,0.0,,0.0,,0.0,,0.0,,0.0,,0.0,,0.0,,0.0,,0.0,,0.0,,0.0,,0.0,,0.0,,0.0,,0.0,,0.0,,0.0,,0.0,,0.0,,0.0,
351,Amsterdam-United States2,42.9387,-74.1882,Amsterdam,United States,0,,0.0,en,0.0,,0.0,,0.0,,0.0,,0.0,,0.0,,0.0,,0.0,,0.0,,0.0,,0.0,,0.0,,0.0,,0.0,,0.0,,0.0,,0.0,,0.0,,0.0,,0.0,
352,Amsterdam-Zuidoost-Netherlands0,52.308,4.9715,AmsterdamZuidoost,Netherlands,0,,0.0,en,0.0,,1.0,en,2.0,en,2.0,,2.0,,2.0,,2.0,,2.0,,2.0,,2.0,,2.0,,2.0,,2.0,,2.0,,2.0,,2.0,,2.0,,2.0,,2.0,,2.0,
353,Amã-Jordan0,31.9494,35.9329,Amã,Jordan,0,,4.0,en,18.0,en,22.0,en,24.0,en,27.0,en,27.0,,29.0,en,29.0,,30.0,en,30.0,,30.0,,30.0,,30.0,,30.0,,31.0,en,31.0,,31.0,,31.0,,33.0,en,33.0,,33.0,
354,Amã-Jordan1,31.9494,35.9329,Amã,Jordan,0,,0.0,en,0.0,,0.0,,0.0,,0.0,,0.0,,0.0,,0.0,,0.0,,0.0,,0.0,,0.0,,0.0,,0.0,,0.0,,0.0,,0.0,,0.0,,0.0,,0.0,,0.0,
355,Amã-Jordan2,31.9494,35.9329,Amã,Jordan,0,,0.0,en,0.0,,0.0,,0.0,,0.0,,0.0,,0.0,,0.0,,0.0,,0.0,,0.0,,0.0,,0.0,,0.0,,0.0,,0.0,,0.0,,0.0,,0.0,,0.0,,0.0,
356,Anacortes-United States0,48.5126,-122.6127,Anacortes,United States,0,,0.0,en,0.0,,0.0,,0.0,,0.0,,0.0,,0.0,,1.0,en,1.0,,1.0,,1.0,,1.0,,1.0,,1.0,,1.0,,1.0,,1.0,,1.0,,1.0,,1.0,,1.0,
357,Anaheim-United States0,33.8353,-117.9145,Anaheim,United States,0,,38.0,en,70.0,en,93.0,en,105.0,en,109.0,en,109.0,,112.0,en,114.0,en,115.0,en,115.0,,115.0,,115.0,,115.0,,115.0,,118.0,en,118.0,,118.0,,118.0,,118.0,,119.0,en,119.0,
358,Anaheim-United States1,33.8353,-117.9145,Anaheim,United States,0,,0.0,en,0.0,,0.0,,0.0,,0.0,,0.0,,0.0,,0.0,,0.0,,0.0,,0.0,,1.0,es,1.0,,1.0,,1.0,,1.0,,1.0,,1.0,,1.0,,1.0,,1.0,
359,Anaheim-United States2,33.8353,-117.9145,Anaheim,United States,0,,0.0,en,0.0,,0.0,,0.0,,0.0,,0.0,,0.0,,0.0,,0.0,,0.0,,0.0,,0.0,,0.0,,0.0,,0.0,,0.0,,0.0,,0.0,,0.0,,0.0,,0.0,
360,Anapolis-Brazil0,-16.3272,-48.9203,Anapolis,Brazil,0,,0.0,en,0.0,,1.0,en,1.0,,1.0,,1.0,,1.0,,1.0,,1.0,,1.0,,1.0,,1.0,,1.0,,1.0,,1.0,,1.0,,1.0,,1.0,,1.0,,1.0,,1.0,
361,Anapolis-Brazil3,-16.3272,-48.9203,Anapolis,Brazil,0,,0.0,en,0.0,,0.0,,0.0,,0.0,,0.0,,0.0,,0.0,,2.0,pt,8.0,pt,20.0,pt,29.0,pt,30.0,pt,30.0,,36.0,pt,36.0,,37.0,pt,41.0,pt,41.0,,41.0,,41.0,
362,Anchorage-United States0,61.2181,-149.9003,Anchorage,United States,0,,56.0,en,96.0,en,112.0,en,120.0,en,121.0,en,123.0,en,124.0,en,125.0,en,127.0,en,127.0,,128.0,en,137.0,en,138.0,en,138.0,,138.0,,138.0,,140.0,en,140.0,,141.0,en,142.0,en,142.0,
363,Anchorage-United States1,61.2181,-149.9003,Anchorage,United States,0,,0.0,en,0.0,,0.0,,0.0,,0.0,,0.0,,0.0,,0.0,,0.0,,0.0,,0.0,,0.0,,0.0,,0.0,,0.0,,0.0,,0.0,,0.0,,0.0,,0.0,,0.0,
364,Anchorage-United States2,61.2181,-149.9003,Anchorage,United States,0,,0.0,en,0.0,,0.0,,0.0,,0.0,,0.0,,0.0,,0.0,,0.0,,0.0,,0.0,,0.0,,0.0,,0.0,,0.0,,0.0,,0.0,,0.0,,0.0,,0.0,,0.0,
365,Anchorage-United States3,61.2181,-149.9003,Anchorage,United States,0,,0.0,en,0.0,,0.0,,0.0,,0.0,,0.0,,0.0,,0.0,,0.0,,0.0,,0.0,,0.0,,0.0,,0.0,,0.0,,0.0,,0.0,,0.0,,0.0,,0.0,,0.0,
366,Ancona-Italy0,43.6158,13.5189,Ancona,Italy,0,,0.0,en,0.0,,1.0,en,1.0,,1.0,,1.0,,1.0,,1.0,,1.0,,1.0,,1.0,,1.0,,1.0,,1.0,,1.0,,1.0,,1.0,,1.0,,1.0,,1.0,,1.0,
367,Andalusia-United States0,31.3085,-86.4833,Andalusia,United States,0,,2.0,en,2.0,,2.0,,2.0,,2.0,,2.0,,2.0,,2.0,,2.0,,2.0,,2.0,,2.0,,2.0,,2.0,,2.0,,2.0,,2.0,,2.0,,2.0,,2.0,,2.0,
368,Anderlecht-Belgium2,50.8366,4.3082,Anderlecht,Belgium,0,,0.0,en,0.0,,0.0,,0.0,,1.0,fr,1.0,,1.0,,1.0,,1.0,,1.0,,1.0,,1.0,,1.0,,1.0,,1.0,,1.0,,1.0,,1.0,,1.0,,1.0,,1.0,
369,Anderson-United States0,40.1053,-85.6803,Anderson,United States,0,,13.0,en,24.0,en,28.0,en,36.0,en,37.0,en,37.0,,37.0,,37.0,,37.0,,38.0,en,38.0,,40.0,en,40.0,,40.0,,40.0,,40.0,,41.0,en,41.0,,42.0,en,42.0,,42.0,
370,Anderson-United States1,40.1053,-85.6803,Anderson,United States,0,,0.0,en,0.0,,0.0,,0.0,,0.0,,0.0,,0.0,,0.0,,0.0,,0.0,,0.0,,0.0,,0.0,,0.0,,0.0,,0.0,,0.0,,0.0,,0.0,,0.0,,0.0,
371,Anderson-United States2,40.1053,-85.6803,Anderson,United States,0,,0.0,en,0.0,,0.0,,0.0,,0.0,,0.0,,0.0,,0.0,,0.0,,0.0,,0.0,,0.0,,0.0,,0.0,,0.0,,0.0,,0.0,,0.0,,0.0,,0.0,,0.0,
372,Andira-Brazil3,-23.0335,-50.2863,Andira,Brazil,0,,0.0,en,0.0,,0.0,,0.0,,0.0,,0.0,,0.0,,0.0,,0.0,,0.0,,0.0,,1.0,pt,1.0,,1.0,,1.0,,1.0,,1.0,,1.0,,1.0,,2.0,pt,2.0,
373,Andorra la Vella-Andorra0,42.5063,1.5218,Andorra la Vella,Andorra,0,,0.0,en,2.0,en,2.0,,2.0,,2.0,,2.0,,2.0,,2.0,,2.0,,2.0,,4.0,en,4.0,,4.0,,4.0,,4.0,,4.0,,4.0,,4.0,,4.0,,4.0,,4.0,
374,Andorra la Vella-Andorra1,36.84,174.74,Andorra la Vella,Andorra,0,,0.0,en,0.0,,0.0,,0.0,,0.0,,0.0,,0.0,,0.0,,0.0,,0.0,,0.0,,3.0,es,3.0,,4.0,es,4.0,,4.0,,4.0,,4.0,,4.0,,4.0,,4.0,
375,Andorra la Vella-Andorra3,42.5063,1.5218,Andorra la Vella,Andorra,0,,0.0,en,0.0,,0.0,,0.0,,0.0,,0.0,,0.0,,0.0,,0.0,,0.0,,0.0,,0.0,,0.0,,0.0,,0.0,,0.0,,0.0,,0.0,,1.0,pt,1.0,,1.0,
376,Andover Township-United States0,41.0155,-74.7296,Andover Township,United States,0,,0.0,en,0.0,,3.0,en,3.0,,3.0,,3.0,,3.0,,3.0,,3.0,,3.0,,3.0,,3.0,,3.0,,3.0,,3.0,,3.0,,3.0,,3.0,,3.0,,3.0,,3.0,
377,Andover-United Kingdom0,51.2112,-1.4919,Andover,United Kingdom,0,,0.0,en,0.0,,0.0,,0.0,,0.0,,0.0,,0.0,,1.0,en,1.0,,1.0,,1.0,,2.0,en,2.0,,2.0,,2.0,,2.0,,2.0,,2.0,,2.0,,2.0,,2.0,
378,Andover-United States0,42.6583,-71.1368,Andover,United States,0,,16.0,en,34.0,en,41.0,en,46.0,en,49.0,en,50.0,en,52.0,en,52.0,,52.0,,52.0,,52.0,,52.0,,52.0,,52.0,,52.0,,52.0,,53.0,en,53.0,,53.0,,53.0,,53.0,
379,Andover-United States1,45.2333,-93.2913,Andover,United States,0,,0.0,en,0.0,,0.0,,0.0,,0.0,,0.0,,0.0,,0.0,,0.0,,0.0,,0.0,,0.0,,0.0,,0.0,,0.0,,0.0,,0.0,,0.0,,0.0,,0.0,,0.0,
380,Andover-United States2,45.2333,-93.2913,Andover,United States,0,,0.0,en,0.0,,0.0,,0.0,,0.0,,0.0,,0.0,,0.0,,0.0,,0.0,,0.0,,0.0,,0.0,,0.0,,0.0,,0.0,,0.0,,0.0,,0.0,,0.0,,0.0,
381,Andradina-Brazil3,-20.8576,-51.389,Andradina,Brazil,0,,0.0,en,0.0,,0.0,,0.0,,0.0,,0.0,,0.0,,0.0,,0.0,,1.0,pt,2.0,pt,5.0,pt,5.0,,5.0,,5.0,,5.0,,8.0,pt,9.0,pt,9.0,,9.0,,9.0,
382,Andrews-United States0,32.3187,-102.5457,Andrews,United States,0,,0.0,en,1.0,en,1.0,,1.0,,1.0,,1.0,,1.0,,1.0,,1.0,,1.0,,1.0,,1.0,,1.0,,1.0,,1.0,,1.0,,1.0,,1.0,,1.0,,1.0,,1.0,
383,Andujar-Spain0,38.0405,-4.0549,Andujar,Spain,0,,1.0,en,1.0,,1.0,,1.0,,1.0,,1.0,,1.0,,1.0,,1.0,,1.0,,1.0,,1.0,,1.0,,1.0,,1.0,,1.0,,1.0,,1.0,,1.0,,1.0,,1.0,
384,Angeles-Philippines0,15.145,120.5887,Angeles,Philippines,0,,1.0,en,22.0,en,41.0,en,50.0,en,54.0,en,54.0,,54.0,,59.0,en,59.0,,59.0,,59.0,,59.0,,59.0,,59.0,,59.0,,59.0,,59.0,,60.0,en,60.0,,62.0,en,62.0,
385,Angeles-Philippines1,15.145,120.5887,Angeles,Philippines,0,,0.0,en,0.0,,0.0,,0.0,,0.0,,0.0,,0.0,,0.0,,0.0,,0.0,,0.0,,0.0,,0.0,,0.0,,0.0,,0.0,,0.0,,0.0,,0.0,,0.0,,0.0,
386,Angeles-Philippines2,15.145,120.5887,Angeles,Philippines,0,,0.0,en,0.0,,0.0,,0.0,,0.0,,0.0,,0.0,,0.0,,0.0,,0.0,,0.0,,0.0,,0.0,,0.0,,0.0,,0.0,,0.0,,0.0,,0.0,,0.0,,0.0,
387,Angers-France0,47.4784,-0.5632,Angers,France,0,,2.0,en,6.0,en,6.0,,6.0,,7.0,en,8.0,en,9.0,en,10.0,en,10.0,,10.0,,10.0,,10.0,,10.0,,10.0,,10.0,,10.0,,10.0,,10.0,,10.0,,10.0,,10.0,
388,Angers-France2,47.4784,-0.5632,Angers,France,0,,0.0,en,0.0,,14.0,fr,22.0,fr,22.0,,22.0,,22.0,,22.0,,22.0,,22.0,,22.0,,23.0,fr,23.0,,23.0,,23.0,,23.0,,23.0,,23.0,,23.0,,23.0,,23.0,
389,Angier-United States0,35.5071,-78.7392,Angier,United States,0,,2.0,en,4.0,en,5.0,en,5.0,,5.0,,5.0,,5.0,,5.0,,5.0,,5.0,,5.0,,5.0,,5.0,,5.0,,5.0,,5.0,,5.0,,5.0,,5.0,,5.0,,5.0,
390,Anglet-France0,43.4814,-1.5147,Anglet,France,0,,1.0,en,1.0,,1.0,,1.0,,1.0,,1.0,,1.0,,1.0,,1.0,,1.0,,1.0,,1.0,,1.0,,1.0,,1.0,,1.0,,1.0,,1.0,,1.0,,1.0,,1.0,
391,Angleton-United States0,29.1694,-95.4319,Angleton,United States,0,,1.0,en,1.0,,1.0,,1.0,,1.0,,1.0,,1.0,,1.0,,1.0,,1.0,,1.0,,1.0,,1.0,,1.0,,1.0,,1.0,,1.0,,1.0,,1.0,,1.0,,1.0,
392,Angola-United States0,41.6348,-84.9994,Angola,United States,0,,1.0,en,2.0,en,2.0,,2.0,,2.0,,2.0,,2.0,,2.0,,2.0,,2.0,,2.0,,2.0,,2.0,,2.0,,2.0,,2.0,,2.0,,2.0,,2.0,,2.0,,2.0,
393,Angouleme-France0,45.6484,0.1562,Angouleme,France,0,,0.0,en,0.0,,0.0,,0.0,,1.0,en,1.0,,1.0,,1.0,,1.0,,1.0,,1.0,,1.0,,1.0,,1.0,,1.0,,1.0,,1.0,,1.0,,1.0,,1.0,,1.0,
394,Angouleme-France2,45.6484,0.1562,Angouleme,France,0,,0.0,en,0.0,,4.0,fr,4.0,,4.0,,4.0,,5.0,fr,5.0,,5.0,,5.0,,5.0,,5.0,,5.0,,5.0,,5.0,,5.0,,5.0,,5.0,,5.0,,5.0,,5.0,
395,Angra do Heroismo-Portugal0,38.6586,-27.2159,Angra do Heroismo,Portugal,0,,1.0,en,2.0,en,2.0,,2.0,,2.0,,2.0,,2.0,,2.0,,2.0,,2.0,,2.0,,2.0,,2.0,,2.0,,2.0,,2.0,,2.0,,2.0,,2.0,,2.0,,2.0,
396,Angra do Heroismo-Portugal3,38.6586,-27.2159,Angra do Heroismo,Portugal,0,,0.0,en,0.0,,0.0,,0.0,,0.0,,0.0,,0.0,,0.0,,0.0,,0.0,,8.0,pt,13.0,pt,17.0,pt,17.0,,17.0,,17.0,,17.0,,17.0,,17.0,,17.0,,18.0,pt
397,Angra dos Reis-Brazil3,-22.9501,-44.2668,Angra dos Reis,Brazil,0,,0.0,en,0.0,,0.0,,0.0,,0.0,,0.0,,0.0,,0.0,,0.0,,0.0,,1.0,pt,4.0,pt,4.0,,5.0,pt,5.0,,5.0,,5.0,,5.0,,5.0,,5.0,,5.0,
398,Angus-Canada0,44.3256,-79.8885,Angus,Canada,0,,1.0,en,1.0,,1.0,,1.0,,3.0,en,3.0,,3.0,,3.0,,3.0,,3.0,,3.0,,3.0,,3.0,,3.0,,3.0,,3.0,,3.0,,3.0,,3.0,,3.0,,3.0,
399,Angwin-United States0,38.5757,-122.45,Angwin,United States,0,,0.0,en,1.0,en,1.0,,1.0,,1.0,,1.0,,1.0,,1.0,,1.0,,1.0,,1.0,,1.0,,1.0,,1.0,,1.0,,1.0,,1.0,,1.0,,1.0,,1.0,,1.0,
400,Ankara-Turkey0,39.9208,32.8541,Ankara,Turkey,0,,7.0,en,18.0,en,21.0,en,22.0,en,25.0,en,28.0,en,28.0,,29.0,en,32.0,en,32.0,,32.0,,32.0,,32.0,,32.0,,32.0,,32.0,,32.0,,32.0,,32.0,,32.0,,32.0,
401,Ankara-Turkey3,39.9208,32.8541,Ankara,Turkey,0,,0.0,en,0.0,,0.0,,0.0,,0.0,,0.0,,0.0,,0.0,,0.0,,0.0,,0.0,,0.0,,0.0,,0.0,,0.0,,1.0,pt,1.0,,1.0,,1.0,,1.0,,1.0,
402,Ankeny-United States0,41.7318,-93.6001,Ankeny,United States,0,,9.0,en,17.0,en,23.0,en,31.0,en,31.0,,34.0,en,36.0,en,38.0,en,38.0,,38.0,,38.0,,38.0,,38.0,,38.0,,38.0,,38.0,,38.0,,38.0,,38.0,,38.0,,38.0,
403,Ankeny-United States3,41.7318,-93.6001,Ankeny,United States,0,,0.0,en,0.0,,0.0,,0.0,,0.0,,0.0,,0.0,,0.0,,0.0,,2.0,pt,5.0,pt,6.0,pt,6.0,,6.0,,6.0,,6.0,,6.0,,6.0,,6.0,,6.0,,6.0,
404,Ankleshwar-India0,21.6264,73.0152,Ankleshwar,India,0,,0.0,en,0.0,,0.0,,1.0,en,1.0,,1.0,,1.0,,1.0,,1.0,,1.0,,1.0,,1.0,,1.0,,1.0,,1.0,,1.0,,1.0,,1.0,,1.0,,1.0,,1.0,
405,Ann Arbor Charter Township-United States0,42.3319,-83.7518,Ann Arbor Charter Township,United States,0,,3.0,en,5.0,en,6.0,en,7.0,en,7.0,,7.0,,7.0,,7.0,,7.0,,7.0,,7.0,,7.0,,7.0,,7.0,,7.0,,7.0,,7.0,,7.0,,7.0,,7.0,,7.0,
406,Ann Arbor-United States0,42.2808,-83.743,Ann Arbor,United States,0,,329.0,en,536.0,en,596.0,en,646.0,en,668.0,en,679.0,en,697.0,en,714.0,en,721.0,en,724.0,en,726.0,en,728.0,en,732.0,en,735.0,en,736.0,en,736.0,,736.0,,738.0,en,744.0,en,744.0,,744.0,
407,Ann Arbor-United States1,42.2808,-83.743,Ann Arbor,United States,0,,0.0,en,0.0,,0.0,,0.0,,0.0,,0.0,,0.0,,0.0,,0.0,,0.0,,0.0,,0.0,,0.0,,0.0,,0.0,,0.0,,0.0,,0.0,,0.0,,0.0,,0.0,
408,Ann Arbor-United States2,42.2808,-83.743,Ann Arbor,United States,0,,0.0,en,0.0,,0.0,,0.0,,0.0,,0.0,,0.0,,0.0,,0.0,,0.0,,0.0,,0.0,,0.0,,0.0,,0.0,,0.0,,0.0,,0.0,,0.0,,0.0,,0.0,
409,Ann Arbor-United States3,42.2808,-83.743,Ann Arbor,United States,0,,0.0,en,0.0,,0.0,,0.0,,0.0,,0.0,,0.0,,0.0,,0.0,,0.0,,0.0,,0.0,,0.0,,0.0,,0.0,,0.0,,0.0,,0.0,,0.0,,0.0,,0.0,
410,Anna-United States0,40.3945,-84.1727,Anna,United States,0,,0.0,en,2.0,en,2.0,,2.0,,2.0,,3.0,en,3.0,,3.0,,3.0,,3.0,,3.0,,3.0,,3.0,,3.0,,3.0,,3.0,,3.0,,3.0,,3.0,,3.0,,3.0,
411,Annaba-Algeria3,36.9029,7.7555,Annaba,Algeria,0,,0.0,en,0.0,,0.0,,0.0,,0.0,,0.0,,0.0,,0.0,,0.0,,0.0,,1.0,pt,1.0,,1.0,,1.0,,1.0,,1.0,,1.0,,1.0,,1.0,,1.0,,1.0,
412,Annandale-United States0,38.8304,-77.1964,Annandale,United States,0,,33.0,en,51.0,en,59.0,en,67.0,en,71.0,en,73.0,en,75.0,en,76.0,en,76.0,,76.0,,76.0,,76.0,,76.0,,76.0,,76.0,,76.0,,77.0,en,77.0,,78.0,en,78.0,,78.0,
413,Annandale-United States1,38.8304,-77.1964,Annandale,United States,0,,0.0,en,0.0,,0.0,,0.0,,0.0,,0.0,,0.0,,0.0,,0.0,,0.0,,0.0,,0.0,,0.0,,0.0,,0.0,,0.0,,0.0,,0.0,,0.0,,0.0,,0.0,
414,Annandale-United States2,38.8304,-77.1964,Annandale,United States,0,,0.0,en,0.0,,0.0,,0.0,,0.0,,0.0,,0.0,,0.0,,0.0,,0.0,,0.0,,0.0,,0.0,,0.0,,0.0,,0.0,,0.0,,0.0,,0.0,,0.0,,0.0,
415,Annapolis-United States0,36.84,174.74,Annapolis,United States,0,,48.0,en,81.0,en,86.0,en,92.0,en,93.0,en,97.0,en,98.0,en,100.0,en,101.0,en,101.0,,101.0,,101.0,,101.0,,101.0,,101.0,,101.0,,101.0,,101.0,,101.0,,102.0,en,103.0,en
416,Annapolis-United States1,41.38,2.18,Annapolis,United States,0,,0.0,en,0.0,,0.0,,0.0,,0.0,,0.0,,0.0,,0.0,,0.0,,0.0,,0.0,,0.0,,0.0,,0.0,,0.0,,0.0,,0.0,,0.0,,0.0,,0.0,,0.0,
417,Annapolis-United States2,41.38,2.18,Annapolis,United States,0,,0.0,en,0.0,,0.0,,0.0,,0.0,,0.0,,0.0,,0.0,,0.0,,0.0,,0.0,,0.0,,0.0,,0.0,,0.0,,0.0,,0.0,,0.0,,0.0,,0.0,,0.0,
418,Annapolis-United States3,38.9784,-76.4922,Annapolis,United States,0,,0.0,en,0.0,,0.0,,0.0,,0.0,,0.0,,0.0,,0.0,,0.0,,0.0,,1.0,pt,2.0,pt,2.0,,2.0,,2.0,,2.0,,2.0,,2.0,,2.0,,2.0,,2.0,
419,Annawan-United States0,41.3973,-89.9045,Annawan,United States,0,,1.0,en,1.0,,1.0,,1.0,,1.0,,1.0,,1.0,,1.0,,1.0,,1.0,,1.0,,1.0,,1.0,,1.0,,1.0,,1.0,,1.0,,1.0,,1.0,,1.0,,1.0,
420,Annecy-France0,45.8992,6.1294,Annecy,France,0,,1.0,en,2.0,en,2.0,,5.0,en,6.0,en,9.0,en,9.0,,9.0,,9.0,,9.0,,9.0,,9.0,,9.0,,9.0,,9.0,,9.0,,9.0,,9.0,,9.0,,9.0,,9.0,
421,Annecy-France2,45.8992,6.1294,Annecy,France,0,,0.0,en,0.0,,3.0,fr,3.0,,3.0,,3.0,,4.0,fr,4.0,,5.0,fr,5.0,,5.0,,5.0,,5.0,,5.0,,5.0,,5.0,,5.0,,5.0,,5.0,,5.0,,5.0,
422,Annecy-France3,45.8992,6.1294,Annecy,France,0,,0.0,en,0.0,,0.0,,0.0,,0.0,,0.0,,0.0,,0.0,,0.0,,0.0,,0.0,,0.0,,0.0,,0.0,,0.0,,0.0,,0.0,,1.0,pt,1.0,,1.0,,1.0,
423,Annemasse-France0,46.1933,6.2342,Annemasse,France,0,,0.0,en,2.0,en,2.0,,2.0,,2.0,,2.0,,2.0,,2.0,,2.0,,2.0,,2.0,,2.0,,2.0,,2.0,,2.0,,2.0,,2.0,,2.0,,2.0,,2.0,,2.0,
424,Annemasse-France2,46.1933,6.2342,Annemasse,France,0,,0.0,en,0.0,,1.0,fr,3.0,fr,3.0,,4.0,fr,4.0,,5.0,fr,5.0,,5.0,,5.0,,5.0,,5.0,,5.0,,5.0,,5.0,,5.0,,5.0,,5.0,,5.0,,5.0,
425,Annemasse-France3,46.1933,6.2342,Annemasse,France,0,,0.0,en,0.0,,0.0,,0.0,,0.0,,0.0,,0.0,,0.0,,0.0,,0.0,,0.0,,0.0,,1.0,pt,1.0,,1.0,,1.0,,1.0,,2.0,pt,2.0,,2.0,,2.0,
426,Anniston-United States0,33.6598,-85.8316,Anniston,United States,0,,4.0,en,5.0,en,5.0,,5.0,,5.0,,5.0,,5.0,,5.0,,5.0,,5.0,,5.0,,5.0,,5.0,,5.0,,5.0,,5.0,,5.0,,5.0,,5.0,,5.0,,5.0,
427,Annville-United States0,40.3295,-76.5152,Annville,United States,0,,12.0,en,18.0,en,19.0,en,19.0,,19.0,,20.0,en,20.0,,21.0,en,22.0,en,22.0,,22.0,,22.0,,22.0,,22.0,,22.0,,22.0,,22.0,,22.0,,22.0,,22.0,,22.0,
428,Anoka-United States0,45.1977,-93.3872,Anoka,United States,0,,0.0,en,1.0,en,1.0,,1.0,,1.0,,1.0,,1.0,,1.0,,1.0,,1.0,,1.0,,1.0,,1.0,,1.0,,1.0,,1.0,,1.0,,1.0,,1.0,,1.0,,1.0,
429,Ansbach-Germany0,49.3004,10.5719,Ansbach,Germany,0,,0.0,en,2.0,en,2.0,,4.0,en,4.0,,4.0,,4.0,,4.0,,4.0,,4.0,,4.0,,4.0,,4.0,,4.0,,4.0,,4.0,,4.0,,4.0,,4.0,,4.0,,4.0,
430,Anse-France2,45.9364,4.7187,Anse,France,0,,0.0,en,0.0,,0.0,,1.0,fr,1.0,,1.0,,1.0,,1.0,,1.0,,1.0,,1.0,,1.0,,1.0,,1.0,,1.0,,1.0,,1.0,,1.0,,1.0,,1.0,,1.0,
431,Anseong-si-South Korea0,37.008,127.2797,Anseongsi,South Korea,0,,0.0,en,0.0,,1.0,en,1.0,,1.0,,1.0,,1.0,,1.0,,1.0,,1.0,,1.0,,1.0,,1.0,,1.0,,1.0,,1.0,,1.0,,1.0,,1.0,,1.0,,1.0,
432,Ansonia-United States0,41.3462,-73.079,Ansonia,United States,0,,3.0,en,5.0,en,7.0,en,9.0,en,9.0,,9.0,,9.0,,9.0,,9.0,,9.0,,9.0,,9.0,,9.0,,9.0,,9.0,,9.0,,9.0,,9.0,,9.0,,9.0,,9.0,
433,Antalya-Turkey0,36.8841,30.7056,Antalya,Turkey,0,,1.0,en,2.0,en,2.0,,3.0,en,3.0,,3.0,,3.0,,3.0,,3.0,,3.0,,3.0,,3.0,,3.0,,3.0,,3.0,,3.0,,3.0,,3.0,,3.0,,3.0,,3.0,
434,Antalya-Turkey3,36.8841,30.7056,Antalya,Turkey,0,,0.0,en,0.0,,0.0,,0.0,,0.0,,0.0,,0.0,,0.0,,0.0,,2.0,pt,2.0,,2.0,,2.0,,2.0,,2.0,,2.0,,2.0,,2.0,,2.0,,2.0,,2.0,
435,Antananarivo-Madagascar0,-18.9149,47.5316,Antananarivo,Madagascar,0,,0.0,en,1.0,en,1.0,,1.0,,1.0,,1.0,,1.0,,1.0,,1.0,,1.0,,1.0,,1.0,,1.0,,1.0,,1.0,,1.0,,1.0,,1.0,,1.0,,1.0,,1.0,
436,Antananarivo-Madagascar2,-18.9149,47.5316,Antananarivo,Madagascar,0,,0.0,en,0.0,,0.0,,1.0,fr,2.0,fr,2.0,,2.0,,4.0,fr,4.0,,4.0,,11.0,fr,24.0,fr,25.0,fr,25.0,,25.0,,25.0,,25.0,,25.0,,25.0,,25.0,,25.0,
437,Antelope-United States0,38.7167,-121.3644,Antelope,United States,0,,14.0,en,24.0,en,26.0,en,26.0,,26.0,,26.0,,26.0,,26.0,,26.0,,26.0,,26.0,,26.0,,26.0,,26.0,,26.0,,26.0,,26.0,,26.0,,26.0,,26.0,,26.0,
438,Antibes-France0,43.5804,7.1251,Antibes,France,0,,0.0,en,1.0,en,2.0,en,2.0,,2.0,,2.0,,2.0,,2.0,,2.0,,2.0,,2.0,,2.0,,2.0,,2.0,,2.0,,2.0,,2.0,,2.0,,2.0,,2.0,,2.0,
439,Antibes-France1,43.5804,7.1251,Antibes,France,0,,0.0,en,0.0,,0.0,,0.0,,0.0,,0.0,,0.0,,0.0,,0.0,,0.0,,0.0,,1.0,es,1.0,,1.0,,1.0,,1.0,,1.0,,1.0,,1.0,,1.0,,1.0,
440,Antibes-France2,43.5804,7.1251,Antibes,France,0,,0.0,en,0.0,,0.0,,2.0,fr,4.0,fr,7.0,fr,7.0,,7.0,,7.0,,7.0,,7.0,,7.0,,7.0,,7.0,,7.0,,7.0,,7.0,,7.0,,7.0,,7.0,,7.0,
441,Antigo-United States0,45.1402,-89.1523,Antigo,United States,0,,2.0,en,3.0,en,3.0,,4.0,en,4.0,,6.0,en,7.0,en,7.0,,7.0,,7.0,,7.0,,7.0,,7.0,,7.0,,7.0,,7.0,,7.0,,7.0,,7.0,,7.0,,7.0,
442,Antigonish-Canada0,45.6227,-61.9928,Antigonish,Canada,0,,12.0,en,16.0,en,20.0,en,22.0,en,22.0,,22.0,,22.0,,23.0,en,23.0,,23.0,,23.0,,23.0,,23.0,,23.0,,24.0,en,24.0,,24.0,,25.0,en,25.0,,25.0,,25.0,
443,Antigonish-Canada1,45.6227,-61.9928,Antigonish,Canada,0,,0.0,en,0.0,,0.0,,0.0,,0.0,,0.0,,0.0,,0.0,,0.0,,0.0,,0.0,,0.0,,0.0,,0.0,,0.0,,0.0,,0.0,,0.0,,0.0,,0.0,,0.0,
444,Antigonish-Canada2,45.6227,-61.9928,Antigonish,Canada,0,,0.0,en,0.0,,0.0,,0.0,,0.0,,0.0,,0.0,,0.0,,0.0,,0.0,,0.0,,0.0,,0.0,,0.0,,0.0,,0.0,,0.0,,0.0,,0.0,,0.0,,0.0,
445,Antioch-United States0,42.4772,-88.0956,Antioch,United States,0,,11.0,en,12.0,en,13.0,en,14.0,en,17.0,en,17.0,,18.0,en,18.0,,18.0,,18.0,,18.0,,18.0,,18.0,,18.0,,18.0,,18.0,,18.0,,18.0,,18.0,,18.0,,18.0,
446,Antofagasta-Chile0,-23.65,-70.4,Antofagasta,Chile,0,,2.0,en,2.0,,2.0,,2.0,,2.0,,3.0,en,3.0,,3.0,,3.0,,3.0,,3.0,,3.0,,3.0,,3.0,,3.0,,3.0,,3.0,,3.0,,3.0,,3.0,,3.0,
447,Antofagasta-Chile1,-23.65,-70.4,Antofagasta,Chile,0,,0.0,en,0.0,,0.0,,0.0,,0.0,,0.0,,0.0,,0.0,,0.0,,0.0,,0.0,,26.0,es,45.0,es,49.0,es,49.0,,49.0,,49.0,,49.0,,49.0,,49.0,,49.0,
448,Antofagasta-Chile3,-23.65,-70.4,Antofagasta,Chile,0,,0.0,en,0.0,,0.0,,0.0,,0.0,,0.0,,0.0,,0.0,,0.0,,0.0,,1.0,pt,1.0,,1.0,,1.0,,1.0,,1.0,,1.0,,1.0,,1.0,,1.0,,1.0,
449,Antonina-Brazil3,-25.2781,-48.7593,Antonina,Brazil,0,,0.0,en,0.0,,0.0,,0.0,,0.0,,0.0,,0.0,,0.0,,0.0,,1.0,pt,1.0,,3.0,pt,3.0,,3.0,,3.0,,3.0,,3.0,,3.0,,3.0,,3.0,,3.0,
450,Antony-France2,48.7593,2.3026,Antony,France,0,,0.0,en,0.0,,1.0,fr,4.0,fr,4.0,,5.0,fr,5.0,,5.0,,6.0,fr,6.0,,6.0,,6.0,,6.0,,6.0,,6.0,,6.0,,6.0,,6.0,,6.0,,6.0,,6.0,
451,Antony-France3,48.7593,2.3026,Antony,France,0,,0.0,en,0.0,,0.0,,0.0,,0.0,,0.0,,0.0,,0.0,,0.0,,0.0,,1.0,pt,1.0,,2.0,pt,2.0,,2.0,,2.0,,2.0,,2.0,,2.0,,2.0,,2.0,
452,Antrim-United Kingdom0,54.7136,-6.2143,Antrim,United Kingdom,0,,1.0,en,1.0,,2.0,en,2.0,,2.0,,3.0,en,3.0,,3.0,,3.0,,3.0,,3.0,,3.0,,3.0,,3.0,,3.0,,3.0,,3.0,,3.0,,3.0,,3.0,,3.0,
453,Antwerp-Belgium0,51.2192,4.4029,Antwerp,Belgium,0,,6.0,en,14.0,en,17.0,en,21.0,en,22.0,en,23.0,en,23.0,,23.0,,23.0,,23.0,,25.0,en,25.0,,26.0,en,26.0,,26.0,,26.0,,26.0,,26.0,,26.0,,26.0,,26.0,
454,Antwerp-Belgium2,51.2192,4.4029,Antwerp,Belgium,0,,0.0,en,0.0,,0.0,,0.0,,0.0,,0.0,,0.0,,0.0,,0.0,,0.0,,0.0,,0.0,,0.0,,0.0,,0.0,,0.0,,0.0,,0.0,,0.0,,0.0,,0.0,
455,Antwerp-Belgium3,51.2192,4.4029,Antwerp,Belgium,0,,0.0,en,0.0,,0.0,,0.0,,0.0,,0.0,,0.0,,0.0,,0.0,,0.0,,0.0,,0.0,,0.0,,2.0,pt,2.0,,2.0,,2.0,,2.0,,2.0,,2.0,,2.0,
456,Anyang-si-South Korea0,37.3943,126.9568,Anyangsi,South Korea,0,,0.0,en,2.0,en,3.0,en,3.0,,3.0,,3.0,,3.0,,3.0,,4.0,en,4.0,,4.0,,4.0,,4.0,,4.0,,4.0,,4.0,,4.0,,4.0,,4.0,,4.0,,4.0,
457,Aomori-Japan0,40.8221,140.7474,Aomori,Japan,0,,0.0,en,3.0,en,3.0,,3.0,,3.0,,3.0,,3.0,,3.0,,3.0,,3.0,,3.0,,3.0,,3.0,,3.0,,3.0,,3.0,,3.0,,3.0,,3.0,,3.0,,3.0,
458,Apache Junction-United States0,33.4151,-111.5496,Apache Junction,United States,0,,2.0,en,2.0,,2.0,,2.0,,2.0,,2.0,,2.0,,2.0,,2.0,,2.0,,2.0,,2.0,,2.0,,2.0,,2.0,,2.0,,2.0,,2.0,,2.0,,2.0,,2.0,
459,Aparecida-Brazil3,-22.9276,-45.2431,Aparecida,Brazil,0,,0.0,en,0.0,,0.0,,0.0,,0.0,,0.0,,0.0,,0.0,,0.0,,1.0,pt,4.0,pt,9.0,pt,14.0,pt,17.0,pt,17.0,,17.0,,17.0,,17.0,,17.0,,17.0,,17.0,
460,Apeldoorn-Netherlands0,52.2112,5.9699,Apeldoorn,Netherlands,0,,3.0,en,3.0,,5.0,en,6.0,en,6.0,,6.0,,6.0,,6.0,,6.0,,6.0,,6.0,,6.0,,6.0,,6.0,,6.0,,6.0,,6.0,,6.0,,6.0,,6.0,,6.0,
461,Apex-United States0,35.7327,-78.8503,Apex,United States,0,,21.0,en,25.0,en,26.0,en,31.0,en,32.0,en,32.0,,32.0,,33.0,en,33.0,,33.0,,33.0,,33.0,,33.0,,34.0,en,34.0,,34.0,,34.0,,34.0,,34.0,,34.0,,34.0,
462,Apollo Beach-United States0,27.7731,-82.4076,Apollo Beach,United States,0,,2.0,en,4.0,en,6.0,en,6.0,,6.0,,6.0,,6.0,,6.0,,6.0,,6.0,,6.0,,6.0,,6.0,,6.0,,6.0,,6.0,,6.0,,6.0,,6.0,,6.0,,6.0,
463,Apollo-United States0,40.5815,-79.5664,Apollo,United States,0,,1.0,en,1.0,,1.0,,1.0,,1.0,,1.0,,1.0,,1.0,,1.0,,1.0,,1.0,,1.0,,1.0,,1.0,,1.0,,1.0,,1.0,,1.0,,1.0,,1.0,,1.0,
464,Apopka-United States0,28.6867,-81.5133,Apopka,United States,0,,10.0,en,14.0,en,20.0,en,21.0,en,22.0,en,22.0,,23.0,en,23.0,,23.0,,23.0,,23.0,,23.0,,23.0,,23.0,,23.0,,23.0,,23.0,,23.0,,23.0,,23.0,,23.0,
465,Apopka-United States3,28.6867,-81.5133,Apopka,United States,0,,0.0,en,0.0,,0.0,,0.0,,0.0,,0.0,,0.0,,0.0,,0.0,,0.0,,0.0,,0.0,,0.0,,0.0,,1.0,pt,1.0,,1.0,,1.0,,1.0,,1.0,,1.0,
466,Apple Valley-United States0,44.7319,-93.2177,Apple Valley,United States,0,,22.0,en,37.0,en,39.0,en,42.0,en,44.0,en,44.0,,47.0,en,47.0,,47.0,,47.0,,48.0,en,48.0,,48.0,,48.0,,48.0,,49.0,en,49.0,,49.0,,49.0,,49.0,,49.0,
467,Apple Valley-United States1,44.7319,-93.2177,Apple Valley,United States,0,,0.0,en,0.0,,0.0,,0.0,,0.0,,0.0,,0.0,,0.0,,0.0,,0.0,,0.0,,0.0,,0.0,,0.0,,0.0,,0.0,,0.0,,0.0,,0.0,,0.0,,0.0,
468,Apple Valley-United States2,44.7319,-93.2177,Apple Valley,United States,0,,0.0,en,0.0,,0.0,,0.0,,0.0,,0.0,,0.0,,0.0,,0.0,,0.0,,0.0,,0.0,,0.0,,0.0,,0.0,,0.0,,0.0,,0.0,,0.0,,0.0,,0.0,
469,Appleton-United States0,44.2619,-88.4154,Appleton,United States,0,,27.0,en,45.0,en,53.0,en,58.0,en,61.0,en,64.0,en,66.0,en,66.0,,68.0,en,69.0,en,70.0,en,70.0,,71.0,en,71.0,,71.0,,71.0,,71.0,,73.0,en,74.0,en,74.0,,74.0,
470,Appleton-United States1,44.2619,-88.4154,Appleton,United States,0,,0.0,en,0.0,,0.0,,0.0,,0.0,,0.0,,0.0,,0.0,,0.0,,0.0,,0.0,,0.0,,0.0,,0.0,,0.0,,0.0,,0.0,,0.0,,0.0,,0.0,,0.0,
471,Appleton-United States2,44.2619,-88.4154,Appleton,United States,0,,0.0,en,0.0,,0.0,,0.0,,0.0,,0.0,,0.0,,0.0,,0.0,,0.0,,0.0,,0.0,,0.0,,0.0,,0.0,,0.0,,0.0,,0.0,,0.0,,0.0,,0.0,
472,Appleton-United States3,44.2619,-88.4154,Appleton,United States,0,,0.0,en,0.0,,0.0,,0.0,,0.0,,0.0,,0.0,,0.0,,0.0,,0.0,,0.0,,0.0,,0.0,,0.0,,0.0,,0.0,,0.0,,0.0,,0.0,,0.0,,0.0,
473,Appley Bridge-United Kingdom0,53.5844,-2.7227,Appley Bridge,United Kingdom,0,,0.0,en,2.0,en,2.0,,2.0,,2.0,,2.0,,2.0,,2.0,,2.0,,2.0,,2.0,,2.0,,2.0,,2.0,,2.0,,2.0,,2.0,,2.0,,2.0,,2.0,,2.0,
474,Aptos-United States0,36.9772,-121.8994,Aptos,United States,0,,1.0,en,1.0,,1.0,,1.0,,1.0,,1.0,,1.0,,1.0,,1.0,,1.0,,1.0,,1.0,,1.0,,1.0,,1.0,,1.0,,1.0,,1.0,,1.0,,1.0,,1.0,
475,Apucarana-Brazil3,-23.5773,-51.452,Apucarana,Brazil,0,,0.0,en,0.0,,0.0,,0.0,,0.0,,0.0,,0.0,,0.0,,0.0,,0.0,,3.0,pt,8.0,pt,10.0,pt,11.0,pt,16.0,pt,19.0,pt,19.0,,19.0,,19.0,,19.0,,19.0,
476,Aquia Harbour-United States0,38.4626,-77.3889,Aquia Harbour,United States,0,,8.0,en,11.0,en,13.0,en,18.0,en,19.0,en,20.0,en,20.0,,20.0,,20.0,,23.0,en,24.0,en,24.0,,24.0,,24.0,,24.0,,24.0,,24.0,,24.0,,24.0,,24.0,,24.0,
477,Aquia Harbour-United States3,38.4626,-77.3889,Aquia Harbour,United States,0,,0.0,en,0.0,,0.0,,0.0,,0.0,,0.0,,0.0,,0.0,,0.0,,0.0,,0.0,,1.0,pt,1.0,,1.0,,1.0,,1.0,,1.0,,1.0,,1.0,,1.0,,1.0,
478,Arab-United States0,34.3181,-86.4958,Arab,United States,0,,3.0,en,4.0,en,6.0,en,7.0,en,8.0,en,8.0,,8.0,,8.0,,8.0,,8.0,,8.0,,8.0,,8.0,,8.0,,8.0,,8.0,,8.0,,8.0,,8.0,,8.0,,8.0,
479,Aracaju-Brazil0,-10.9989,-37.0937,Aracaju,Brazil,0,,1.0,en,3.0,en,3.0,,3.0,,3.0,,3.0,,3.0,,3.0,,3.0,,3.0,,3.0,,3.0,,3.0,,3.0,,3.0,,3.0,,3.0,,3.0,,3.0,,3.0,,3.0,
480,Aracaju-Brazil3,-10.9989,-37.0937,Aracaju,Brazil,0,,0.0,en,0.0,,0.0,,0.0,,0.0,,0.0,,0.0,,0.0,,0.0,,22.0,pt,78.0,pt,137.0,pt,162.0,pt,171.0,pt,175.0,pt,179.0,pt,180.0,pt,190.0,pt,193.0,pt,193.0,,193.0,
481,Aracati-Brazil3,-4.641,-37.6812,Aracati,Brazil,0,,0.0,en,0.0,,0.0,,0.0,,0.0,,0.0,,0.0,,0.0,,0.0,,0.0,,0.0,,0.0,,0.0,,0.0,,0.0,,0.0,,0.0,,0.0,,1.0,pt,1.0,,2.0,pt
482,Aracatuba-Brazil3,-21.1653,-50.4722,Aracatuba,Brazil,0,,0.0,en,0.0,,0.0,,0.0,,0.0,,0.0,,0.0,,0.0,,0.0,,1.0,pt,25.0,pt,58.0,pt,71.0,pt,79.0,pt,89.0,pt,95.0,pt,95.0,,98.0,pt,99.0,pt,99.0,,100.0,pt
483,Araguaina-Brazil3,-7.3603,-48.319,Araguaina,Brazil,0,,0.0,en,0.0,,0.0,,0.0,,0.0,,0.0,,0.0,,0.0,,0.0,,0.0,,0.0,,1.0,pt,2.0,pt,2.0,,2.0,,2.0,,2.0,,2.0,,2.0,,2.0,,2.0,
484,Araguari-Brazil3,-18.543,-48.1598,Araguari,Brazil,0,,0.0,en,0.0,,0.0,,0.0,,0.0,,0.0,,0.0,,0.0,,0.0,,0.0,,2.0,pt,2.0,,3.0,pt,3.0,,3.0,,3.0,,3.0,,3.0,,3.0,,3.0,,3.0,
485,Arakawa-Japan0,35.7361,139.7834,Arakawa,Japan,0,,0.0,en,0.0,,0.0,,0.0,,0.0,,0.0,,0.0,,0.0,,0.0,,0.0,,0.0,,0.0,,0.0,,0.0,,0.0,,0.0,,0.0,,0.0,,0.0,,1.0,en,1.0,
486,Arakawa-Japan1,35.7361,139.7834,Arakawa,Japan,0,,0.0,en,0.0,,0.0,,0.0,,0.0,,0.0,,0.0,,0.0,,0.0,,0.0,,0.0,,0.0,,0.0,,0.0,,0.0,,0.0,,0.0,,0.0,,0.0,,0.0,,0.0,
487,Arakawa-Japan2,35.7361,139.7834,Arakawa,Japan,0,,0.0,en,0.0,,0.0,,0.0,,0.0,,0.0,,0.0,,0.0,,0.0,,0.0,,0.0,,0.0,,0.0,,0.0,,0.0,,0.0,,0.0,,0.0,,0.0,,0.0,,0.0,
488,Aranda de Duero-Spain0,41.6738,-3.6896,Aranda de Duero,Spain,0,,0.0,en,1.0,en,1.0,,1.0,,1.0,,1.0,,1.0,,1.0,,1.0,,1.0,,1.0,,1.0,,1.0,,1.0,,1.0,,1.0,,1.0,,1.0,,1.0,,1.0,,1.0,
489,Arapiraca-Brazil3,-9.6987,-36.6526,Arapiraca,Brazil,0,,0.0,en,0.0,,0.0,,0.0,,0.0,,0.0,,0.0,,0.0,,0.0,,0.0,,7.0,pt,12.0,pt,19.0,pt,19.0,,19.0,,23.0,pt,23.0,,23.0,,23.0,,23.0,,23.0,
490,Arapongas-Brazil3,-23.4449,-51.41,Arapongas,Brazil,0,,0.0,en,0.0,,0.0,,0.0,,0.0,,0.0,,0.0,,0.0,,0.0,,6.0,pt,9.0,pt,15.0,pt,18.0,pt,21.0,pt,22.0,pt,25.0,pt,25.0,,25.0,,25.0,,25.0,,25.0,
491,Ararangua-Brazil3,-28.9434,-49.5076,Ararangua,Brazil,0,,0.0,en,0.0,,0.0,,0.0,,0.0,,0.0,,0.0,,0.0,,0.0,,0.0,,7.0,pt,17.0,pt,17.0,,19.0,pt,23.0,pt,24.0,pt,25.0,pt,25.0,,26.0,pt,26.0,,26.0,
492,Araraquara-Brazil3,-21.7536,-48.1996,Araraquara,Brazil,0,,0.0,en,0.0,,0.0,,0.0,,0.0,,0.0,,0.0,,0.0,,3.0,pt,26.0,pt,136.0,pt,260.0,pt,288.0,pt,312.0,pt,336.0,pt,364.0,pt,369.0,pt,376.0,pt,377.0,pt,377.0,,378.0,pt
493,Araras-Brazil3,-22.3277,-47.3315,Araras,Brazil,0,,0.0,en,0.0,,0.0,,0.0,,0.0,,0.0,,0.0,,0.0,,0.0,,6.0,pt,21.0,pt,33.0,pt,39.0,pt,43.0,pt,53.0,pt,61.0,pt,65.0,pt,67.0,pt,67.0,,67.0,,68.0,pt
494,Araripina-Brazil3,-7.5711,-40.4944,Araripina,Brazil,0,,0.0,en,0.0,,0.0,,0.0,,0.0,,0.0,,0.0,,0.0,,0.0,,0.0,,0.0,,0.0,,1.0,pt,1.0,,2.0,pt,2.0,,2.0,,3.0,pt,4.0,pt,5.0,pt,5.0,
495,Araruama-Brazil3,-22.7372,-42.2954,Araruama,Brazil,0,,0.0,en,0.0,,0.0,,0.0,,0.0,,0.0,,0.0,,0.0,,0.0,,0.0,,1.0,pt,4.0,pt,7.0,pt,7.0,,9.0,pt,9.0,,9.0,,11.0,pt,11.0,,12.0,pt,13.0,pt
496,Araucaria-Brazil3,-25.5735,-49.4059,Araucaria,Brazil,0,,0.0,en,0.0,,0.0,,0.0,,0.0,,0.0,,0.0,,0.0,,0.0,,2.0,pt,5.0,pt,9.0,pt,9.0,,9.0,,9.0,,9.0,,10.0,pt,10.0,,10.0,,10.0,,10.0,
497,Araxa-Brazil3,-19.6096,-46.9417,Araxa,Brazil,0,,0.0,en,0.0,,0.0,,0.0,,0.0,,0.0,,0.0,,0.0,,1.0,pt,3.0,pt,5.0,pt,11.0,pt,12.0,pt,12.0,,12.0,,12.0,,13.0,pt,14.0,pt,14.0,,14.0,,14.0,
498,Arbon-Switzerland0,47.5167,9.4316,Arbon,Switzerland,0,,0.0,en,1.0,en,1.0,,1.0,,1.0,,1.0,,1.0,,1.0,,1.0,,1.0,,1.0,,1.0,,1.0,,1.0,,1.0,,1.0,,1.0,,1.0,,1.0,,1.0,,1.0,
499,Arbroath-United Kingdom0,56.5591,-2.5915,Arbroath,United Kingdom,0,,2.0,en,5.0,en,5.0,,5.0,,5.0,,5.0,,5.0,,5.0,,5.0,,5.0,,5.0,,5.0,,5.0,,5.0,,5.0,,5.0,,5.0,,5.0,,5.0,,5.0,,5.0,
500,Arbutus-United States0,39.2546,-76.7,Arbutus,United States,0,,6.0,en,12.0,en,12.0,,13.0,en,13.0,,13.0,,13.0,,14.0,en,14.0,,14.0,,14.0,,14.0,,14.0,,14.0,,14.0,,14.0,,14.0,,14.0,,14.0,,14.0,,14.0,
501,Arcade-United States0,42.534,-78.4231,Arcade,United States,0,,1.0,en,1.0,,1.0,,1.0,,1.0,,1.0,,1.0,,1.0,,1.0,,1.0,,1.0,,1.0,,1.0,,1.0,,1.0,,1.0,,1.0,,1.0,,1.0,,1.0,,1.0,
502,Arcadia-United States0,34.1397,-118.0353,Arcadia,United States,0,,13.0,en,21.0,en,25.0,en,25.0,,27.0,en,29.0,en,29.0,,30.0,en,30.0,,30.0,,30.0,,30.0,,30.0,,30.0,,30.0,,30.0,,30.0,,30.0,,30.0,,30.0,,30.0,
503,Arcata-United States0,40.8665,-124.0828,Arcata,United States,0,,9.0,en,14.0,en,17.0,en,20.0,en,21.0,en,22.0,en,22.0,,23.0,en,23.0,,23.0,,23.0,,23.0,,23.0,,23.0,,23.0,,24.0,en,24.0,,24.0,,24.0,,24.0,,24.0,
504,Arcata-United States1,40.8665,-124.0828,Arcata,United States,0,,0.0,en,0.0,,0.0,,0.0,,0.0,,0.0,,0.0,,0.0,,0.0,,0.0,,0.0,,0.0,,0.0,,0.0,,0.0,,0.0,,0.0,,0.0,,0.0,,0.0,,0.0,
505,Arcata-United States2,40.8665,-124.0828,Arcata,United States,0,,0.0,en,0.0,,0.0,,0.0,,0.0,,0.0,,0.0,,0.0,,0.0,,0.0,,0.0,,0.0,,0.0,,0.0,,0.0,,0.0,,0.0,,0.0,,0.0,,0.0,,0.0,
506,Arcata-United States3,40.8665,-124.0828,Arcata,United States,0,,0.0,en,0.0,,0.0,,0.0,,0.0,,0.0,,0.0,,0.0,,0.0,,0.0,,0.0,,0.0,,1.0,pt,1.0,,1.0,,1.0,,1.0,,1.0,,1.0,,1.0,,1.0,
507,Archbald-United States0,41.4948,-75.5368,Archbald,United States,0,,4.0,en,9.0,en,10.0,en,10.0,,10.0,,11.0,en,11.0,,11.0,,11.0,,11.0,,11.0,,11.0,,11.0,,11.0,,11.0,,11.0,,11.0,,11.0,,11.0,,11.0,,11.0,
508,Archbold-United States0,41.5214,-84.3072,Archbold,United States,0,,1.0,en,2.0,en,2.0,,2.0,,2.0,,2.0,,2.0,,2.0,,2.0,,2.0,,2.0,,2.0,,2.0,,2.0,,2.0,,2.0,,2.0,,2.0,,2.0,,2.0,,2.0,
509,Archdale-United States0,35.9146,-79.972,Archdale,United States,0,,2.0,en,4.0,en,4.0,,5.0,en,5.0,,5.0,,5.0,,5.0,,5.0,,5.0,,5.0,,5.0,,5.0,,5.0,,5.0,,5.0,,5.0,,5.0,,5.0,,5.0,,5.0,
510,Archena-Spain0,38.115,-1.2977,Archena,Spain,0,,1.0,en,1.0,,1.0,,1.0,,1.0,,1.0,,1.0,,1.0,,1.0,,1.0,,1.0,,1.0,,1.0,,1.0,,1.0,,1.0,,1.0,,1.0,,1.0,,1.0,,1.0,
511,Archena-Spain3,38.115,-1.2977,Archena,Spain,0,,0.0,en,0.0,,0.0,,0.0,,0.0,,0.0,,0.0,,0.0,,0.0,,0.0,,0.0,,0.0,,1.0,pt,1.0,,1.0,,1.0,,1.0,,1.0,,1.0,,1.0,,1.0,
512,Arden Hills-United States0,45.0502,-93.1566,Arden Hills,United States,0,,1.0,en,3.0,en,4.0,en,5.0,en,5.0,,5.0,,5.0,,5.0,,5.0,,5.0,,5.0,,5.0,,5.0,,5.0,,5.0,,6.0,en,6.0,,6.0,,6.0,,6.0,,6.0,
513,Arden Hills-United States1,45.0502,-93.1566,Arden Hills,United States,0,,0.0,en,0.0,,0.0,,0.0,,0.0,,0.0,,0.0,,0.0,,0.0,,0.0,,0.0,,0.0,,0.0,,0.0,,0.0,,0.0,,0.0,,0.0,,0.0,,0.0,,0.0,
514,Arden Hills-United States2,45.0502,-93.1566,Arden Hills,United States,0,,0.0,en,0.0,,0.0,,0.0,,0.0,,0.0,,0.0,,0.0,,0.0,,0.0,,0.0,,0.0,,0.0,,0.0,,0.0,,0.0,,0.0,,0.0,,0.0,,0.0,,0.0,
515,Arden-Arcade-United States0,38.6008,-121.377,ArdenArcade,United States,0,,15.0,en,25.0,en,28.0,en,33.0,en,33.0,,33.0,,34.0,en,34.0,,34.0,,35.0,en,36.0,en,36.0,,36.0,,36.0,,36.0,,36.0,,36.0,,36.0,,36.0,,36.0,,37.0,en
516,Arden-Arcade-United States1,38.6008,-121.377,ArdenArcade,United States,0,,0.0,en,0.0,,0.0,,0.0,,0.0,,0.0,,0.0,,0.0,,0.0,,0.0,,0.0,,0.0,,0.0,,0.0,,0.0,,0.0,,0.0,,0.0,,0.0,,0.0,,0.0,
517,Arden-Arcade-United States2,38.6008,-121.377,ArdenArcade,United States,0,,0.0,en,0.0,,0.0,,0.0,,0.0,,0.0,,0.0,,0.0,,0.0,,0.0,,0.0,,0.0,,0.0,,0.0,,0.0,,0.0,,0.0,,0.0,,0.0,,0.0,,0.0,
518,Ardmore-United States0,40.0068,-75.2855,Ardmore,United States,0,,11.0,en,17.0,en,19.0,en,20.0,en,20.0,,20.0,,21.0,en,22.0,en,23.0,en,23.0,,23.0,,23.0,,23.0,,23.0,,23.0,,23.0,,23.0,,23.0,,23.0,,23.0,,23.0,
519,Ardmore-United States3,40.0068,-75.2855,Ardmore,United States,0,,0.0,en,0.0,,0.0,,0.0,,0.0,,0.0,,0.0,,0.0,,0.0,,0.0,,2.0,pt,2.0,,2.0,,2.0,,2.0,,3.0,pt,3.0,,3.0,,3.0,,3.0,,3.0,
520,Ardsley-United States0,41.0107,-73.8437,Ardsley,United States,0,,0.0,en,1.0,en,4.0,en,4.0,,4.0,,4.0,,4.0,,4.0,,4.0,,4.0,,4.0,,4.0,,4.0,,4.0,,4.0,,4.0,,4.0,,4.0,,4.0,,4.0,,4.0,
521,Arecibo-Puerto Rico0,18.4724,-66.7157,Arecibo,Puerto Rico,0,,0.0,en,7.0,en,13.0,en,17.0,en,17.0,,18.0,en,18.0,,19.0,en,19.0,,19.0,,19.0,,19.0,,19.0,,19.0,,19.0,,19.0,,19.0,,19.0,,19.0,,19.0,,19.0,
522,Arecibo-Puerto Rico1,18.4724,-66.7157,Arecibo,Puerto Rico,0,,0.0,en,0.0,,0.0,,0.0,,0.0,,0.0,,0.0,,0.0,,0.0,,0.0,,0.0,,2.0,es,3.0,es,3.0,,3.0,,3.0,,3.0,,3.0,,3.0,,3.0,,3.0,
523,Arendal-Norway0,58.473,8.9239,Arendal,Norway,0,,1.0,en,2.0,en,2.0,,2.0,,2.0,,2.0,,2.0,,2.0,,2.0,,2.0,,2.0,,2.0,,2.0,,2.0,,2.0,,2.0,,2.0,,2.0,,2.0,,2.0,,2.0,
524,Arendonk-Belgium0,51.322,5.0863,Arendonk,Belgium,0,,1.0,en,1.0,,1.0,,1.0,,1.0,,1.0,,1.0,,1.0,,1.0,,1.0,,1.0,,1.0,,1.0,,1.0,,1.0,,1.0,,1.0,,1.0,,1.0,,1.0,,1.0,
525,Arequipa-Peru1,-16.3988,-71.5369,Arequipa,Peru,0,,0.0,en,0.0,,0.0,,0.0,,0.0,,0.0,,0.0,,0.0,,0.0,,0.0,,0.0,,3.0,es,3.0,,4.0,es,4.0,,4.0,,4.0,,4.0,,4.0,,4.0,,4.0,
526,Arequipa-Peru3,-16.3988,-71.5369,Arequipa,Peru,0,,0.0,en,0.0,,0.0,,0.0,,0.0,,0.0,,0.0,,0.0,,0.0,,0.0,,1.0,pt,1.0,,1.0,,1.0,,1.0,,1.0,,1.0,,1.0,,1.0,,1.0,,1.0,
527,Arese-Italy0,45.5508,9.0779,Arese,Italy,0,,0.0,en,0.0,,0.0,,2.0,en,2.0,,2.0,,2.0,,2.0,,2.0,,2.0,,2.0,,2.0,,2.0,,2.0,,2.0,,2.0,,2.0,,2.0,,2.0,,2.0,,2.0,
528,Arezzo-Italy0,43.467,11.8823,Arezzo,Italy,0,,0.0,en,0.0,,0.0,,0.0,,0.0,,2.0,en,2.0,,2.0,,2.0,,2.0,,2.0,,2.0,,2.0,,2.0,,2.0,,2.0,,2.0,,2.0,,2.0,,2.0,,2.0,
529,Argenteuil-France0,48.9474,2.249,Argenteuil,France,0,,0.0,en,3.0,en,3.0,,3.0,,3.0,,3.0,,3.0,,3.0,,3.0,,3.0,,3.0,,3.0,,3.0,,3.0,,3.0,,3.0,,3.0,,3.0,,3.0,,3.0,,3.0,
530,Argenteuil-France2,48.9474,2.249,Argenteuil,France,0,,0.0,en,0.0,,3.0,fr,4.0,fr,4.0,,4.0,,4.0,,4.0,,4.0,,4.0,,4.0,,4.0,,4.0,,4.0,,4.0,,4.0,,4.0,,4.0,,4.0,,4.0,,4.0,
531,Argyle-United States0,33.1212,-97.1833,Argyle,United States,0,,2.0,en,3.0,en,4.0,en,4.0,,4.0,,4.0,,4.0,,4.0,,4.0,,4.0,,4.0,,4.0,,4.0,,4.0,,4.0,,4.0,,4.0,,4.0,,4.0,,5.0,en,5.0,
532,Argyle-United States1,33.1212,-97.1833,Argyle,United States,0,,0.0,en,0.0,,0.0,,0.0,,0.0,,0.0,,0.0,,0.0,,0.0,,0.0,,0.0,,0.0,,0.0,,0.0,,0.0,,0.0,,0.0,,0.0,,0.0,,0.0,,0.0,
533,Argyle-United States2,33.1212,-97.1833,Argyle,United States,0,,0.0,en,0.0,,0.0,,0.0,,0.0,,0.0,,0.0,,0.0,,0.0,,0.0,,0.0,,0.0,,0.0,,0.0,,0.0,,0.0,,0.0,,0.0,,0.0,,0.0,,0.0,
534,Arica-Chile0,-18.477,-70.3145,Arica,Chile,0,,1.0,en,1.0,,1.0,,1.0,,1.0,,1.0,,1.0,,1.0,,1.0,,1.0,,1.0,,1.0,,1.0,,1.0,,1.0,,1.0,,1.0,,1.0,,1.0,,1.0,,1.0,
535,Arica-Chile1,-18.477,-70.3145,Arica,Chile,0,,0.0,en,0.0,,0.0,,0.0,,0.0,,0.0,,0.0,,0.0,,0.0,,0.0,,0.0,,6.0,es,10.0,es,13.0,es,13.0,,13.0,,13.0,,13.0,,13.0,,13.0,,13.0,
536,Arkadelphia-United States0,34.1209,-93.0538,Arkadelphia,United States,0,,0.0,en,2.0,en,3.0,en,3.0,,3.0,,3.0,,3.0,,3.0,,3.0,,3.0,,3.0,,3.0,,3.0,,3.0,,3.0,,3.0,,3.0,,3.0,,3.0,,3.0,,3.0,
537,Arkansas City-United States0,37.062,-97.0384,Arkansas City,United States,0,,2.0,en,3.0,en,3.0,,4.0,en,5.0,en,5.0,,5.0,,5.0,,5.0,,5.0,,5.0,,5.0,,5.0,,5.0,,5.0,,5.0,,5.0,,5.0,,5.0,,5.0,,5.0,
538,Arles-France2,43.6767,4.6275,Arles,France,0,,0.0,en,0.0,,1.0,fr,1.0,,2.0,fr,2.0,,2.0,,2.0,,2.0,,2.0,,2.0,,2.0,,2.0,,2.0,,2.0,,2.0,,2.0,,2.0,,2.0,,2.0,,2.0,
539,Arlington Heights-United States0,42.0884,-87.9806,Arlington Heights,United States,0,,24.0,en,45.0,en,61.0,en,69.0,en,71.0,en,74.0,en,76.0,en,78.0,en,78.0,,78.0,,79.0,en,79.0,,79.0,,79.0,,79.0,,79.0,,79.0,,80.0,en,80.0,,80.0,,80.0,
540,Arlington Heights-United States1,42.0884,-87.9806,Arlington Heights,United States,0,,0.0,en,0.0,,0.0,,0.0,,0.0,,0.0,,0.0,,0.0,,0.0,,0.0,,0.0,,0.0,,1.0,es,1.0,,1.0,,1.0,,1.0,,1.0,,1.0,,1.0,,1.0,
541,Arlington Heights-United States2,42.0884,-87.9806,Arlington Heights,United States,0,,0.0,en,0.0,,0.0,,0.0,,0.0,,0.0,,0.0,,0.0,,0.0,,0.0,,0.0,,0.0,,0.0,,0.0,,0.0,,0.0,,0.0,,0.0,,0.0,,0.0,,0.0,
542,Arlington Heights-United States3,42.0884,-87.9806,Arlington Heights,United States,0,,0.0,en,0.0,,0.0,,0.0,,0.0,,0.0,,0.0,,0.0,,0.0,,0.0,,0.0,,0.0,,0.0,,0.0,,0.0,,0.0,,0.0,,0.0,,0.0,,0.0,,0.0,
543,Arlington-United States0,38.88,-77.1068,Arlington,United States,0,,258.0,en,415.0,en,466.0,en,499.0,en,516.0,en,540.0,en,552.0,en,566.0,en,574.0,en,576.0,en,577.0,en,579.0,en,580.0,en,582.0,en,585.0,en,586.0,en,589.0,en,590.0,en,594.0,en,596.0,en,597.0,en
544,Arlington-United States1,32.7357,-97.1081,Arlington,United States,0,,0.0,en,0.0,,0.0,,0.0,,0.0,,0.0,,0.0,,0.0,,0.0,,0.0,,0.0,,0.0,,0.0,,0.0,,0.0,,0.0,,0.0,,0.0,,0.0,,0.0,,0.0,
545,Arlington-United States2,38.88,-77.1068,Arlington,United States,0,,0.0,en,0.0,,0.0,,0.0,,0.0,,0.0,,0.0,,0.0,,0.0,,0.0,,0.0,,0.0,,0.0,,0.0,,0.0,,0.0,,0.0,,0.0,,0.0,,0.0,,0.0,
546,Arlington-United States3,38.88,-77.1068,Arlington,United States,0,,0.0,en,0.0,,0.0,,0.0,,0.0,,0.0,,0.0,,0.0,,0.0,,0.0,,0.0,,0.0,,0.0,,0.0,,0.0,,0.0,,0.0,,0.0,,0.0,,0.0,,0.0,
547,Arluno-Italy0,45.5057,8.941,Arluno,Italy,0,,0.0,en,0.0,,0.0,,2.0,en,2.0,,2.0,,2.0,,2.0,,2.0,,2.0,,2.0,,2.0,,2.0,,2.0,,2.0,,2.0,,2.0,,2.0,,2.0,,2.0,,2.0,
